id,name,vendor,latitude,longitude,pollutionLevel,streetNumber,route,locality,country,airQualityIndex,humidity,measurementTime,pm1,pm10,pm25,pressure,temperature,windDirection,windSpeed,forecast,history
129,SRGZ,Airly,50.1167,19.91429,0,2,Księdza Jana Michalika,Zielonki,Poland,0,0,,0,0,0,0,0,0,0,,
130,SRGZ,Airly,50.11656,19.9138,2,2,Księdza Jana Michalika,Zielonki,Poland,0,0,,0,0,0,0,0,0,0,,
131,SRGZ,Airly,50.1165,19.91401,0,2,Księdza Jana Michalika,Zielonki,Poland,0,0,,0,0,0,0,0,0,0,,
135,SRGZ,Airly,50.15027,19.93276,0,,,Wola Zachariaszowska,Poland,0,0,,0,0,0,0,0,0,0,,
136,SRGZ,Airly,50.1502,19.93232,0,,Plac Józefa Kusia,Wola Zachariaszowska,Poland,0,0,,0,0,0,0,0,0,0,,
137,SRGZ,Airly,50.1502,19.9326,0,,,Wola Zachariaszowska,Poland,0,0,,0,0,0,0,0,0,0,,
138,SRGZ,Airly,50.17255,19.91542,0,,,Owczary,Poland,0,0,,0,0,0,0,0,0,0,,
139,SRGZ,Airly,50.17268,19.91511,0,,Gielniówka,Owczary,Poland,0,0,,0,0,0,0,0,0,0,,
140,KrakówOddycha,Airly,50.05775,19.96137,2,1A,Aleja Pokoju,Kraków,Poland,0,0,,0,0,0,0,0,0,0,,
144,Wielka Wieś,Airly,50.13921,19.88693,1,8,Osiedle Szkolne,Giebułtów,Poland,0,0,,0,0,0,0,0,0,0,,
145,Wielka Wieś,Airly,50.13907,19.88758,2,8,Osiedle Szkolne,Giebułtów,Poland,0,0,,0,0,0,0,0,0,0,,
147,KrakówOddycha,Airly,50.04892,19.96226,0,8,Ślusarska,Kraków,Poland,0,0,,0,0,0,0,0,0,0,,
158,Wielka Wieś,Airly,50.18413,19.79108,1,76,Krakowska,Bębło,Poland,0,0,,0,0,0,0,0,0,0,,
170,KrakówOddycha,Airly,50.07747,19.89558,2,19,Wesele,Kraków,Poland,0,0,,0,0,0,0,0,0,0,,
172,KrakówOddycha,Airly,50.07309,19.88675,2,108,Wiedeńska,Kraków,Poland,0,0,,0,0,0,0,0,0,0,,
173,KrakówOddycha,Airly,50.05754,19.89755,2,20,Vlastimila Hofmana,Kraków,Poland,0,0,,0,0,0,0,0,0,0,,
174,KrakówOddycha,Airly,50.05724,19.91487,2,7,Leona Wyczółkowskiego,Kraków,Poland,0,0,,0,0,0,0,0,0,0,,
176,KrakówOddycha,Airly,50.04407,19.9988,2,59,Myśliwska,Kraków,Poland,0,0,,0,0,0,0,0,0,0,,
177,KrakówOddycha,Airly,50.09362,19.92414,2,6A,Grochowiaka,Kraków,Poland,0,0,,0,0,0,0,0,0,0,,
179,KrakówOddycha,Airly,50.07769,19.93578,2,22,Prądnicka,Kraków,Poland,0,0,,0,0,0,0,0,0,0,,
182,KrakówOddycha,Airly,50.02058,20.02296,2,9,Komandora Bohdana Wrońskiego,Kraków,Poland,0,0,,0,0,0,0,0,0,0,,
183,KrakówOddycha,Airly,50.0983,19.87942,2,202,Stawowa,Kraków,Poland,0,0,,0,0,0,0,0,0,0,,
184,KrakówOddycha,Airly,50.04774,19.91965,2,6,Adolfa Nowaczyńskiego,Kraków,Poland,0,0,,0,0,0,0,0,0,0,,
185,KrakówOddycha,Airly,50.08547,19.89921,0,102,Radzikowskiego,Kraków-Krowodrza,Poland,0,0,,0,0,0,0,0,0,0,,
189,KrakówOddycha,Airly,50.06242,19.92837,0,27,Studencka,Kraków,Poland,0,0,,0,0,0,0,0,0,0,,
192,KrakówOddycha,Airly,50.06513,19.8675,2,9,aleja Kasztanowa,Kraków,Poland,0,0,,0,0,0,0,0,0,0,,
195,KrakówOddycha,Airly,50.06668,19.99721,1,141,Aleja Pokoju,Kraków,Poland,0,0,,0,0,0,0,0,0,0,,
196,KrakówOddycha,Airly,50.06675,19.96208,2,6,Kielecka,Kraków,Poland,0,0,,0,0,0,0,0,0,0,,
201,KrakówOddycha,Airly,50.05491,19.9565,2,9,Masarska,Kraków,Poland,0,0,,0,0,0,0,0,0,0,,
202,KrakówOddycha,Airly,50.00559,19.92897,3,21,Antoniego Szyllinga,Kraków,Poland,0,0,,0,0,0,0,0,0,0,,
203,KrakówOddycha,Airly,50.08345,20.05715,1,84,Wąwozowa,Kraków,Poland,0,0,,0,0,0,0,0,0,0,,
204,KrakówOddycha,Airly,50.06201,19.94098,2,4B,Mikołajska,Kraków,Poland,0,0,,0,0,0,0,0,0,0,,
205,KrakówOddycha,Airly,50.08872,19.91031,0,,Ludomira Różyckiego,Kraków,Poland,0,0,,0,0,0,0,0,0,0,,
206,Zielonki,Airly,50.10833,19.924,1,15,Długopolska,Zielonki,Poland,0,0,,0,0,0,0,0,0,0,,
207,Wielka Wieś,Airly,50.17426,19.84974,1,3,Ojca Smolikowskiego,Prądnik Korzkiewski,Poland,0,0,,0,0,0,0,0,0,0,,
208,KrakówOddycha,Airly,50.09924,19.95395,1,18,Macieja Słomczyńskiego,Kraków,Poland,0,0,,0,0,0,0,0,0,0,,
210,KrakówOddycha,Airly,50.06268,20.01892,1,12G,Sołtysowska,Kraków,Poland,0,0,,0,0,0,0,0,0,0,,
212,KrakówOddycha,Airly,50.05514,19.89457,2,1,aleja Jerzego Waszyngtona,Kraków,Poland,0,0,,0,0,0,0,0,0,0,,
214,KrakówOddycha,Airly,50.07172,19.96235,2,16,Generała Józefa Bema,Kraków,Poland,0,0,,0,0,0,0,0,0,0,,
215,KrakówOddycha,Airly,50.09669,19.99357,1,13,Korony Polskiej,Kraków,Poland,0,0,,0,0,0,0,0,0,0,,
218,KrakówOddycha,Airly,50.04248,19.82699,2,46,Dworna,Kraków,Poland,0,0,,0,0,0,0,0,0,0,,
219,KrakówOddycha,Airly,50.10735,20.04577,2,15,Gustawa Morcinka,Kraków,Poland,0,0,,0,0,0,0,0,0,0,,
220,KrakówOddycha,Airly,50.07967,19.94919,2,3,Rogatka,Kraków,Poland,0,0,,0,0,0,0,0,0,0,,
221,KrakówOddycha,Airly,50.08535,20.00755,1,26,Osiedle Dywizjonu 303,Kraków,Poland,0,0,,0,0,0,0,0,0,0,,
222,KrakówOddycha,Airly,50.04072,19.86958,2,4C,Widłakowa,Kraków,Poland,0,0,,0,0,0,0,0,0,0,,
223,KrakówOddycha,Airly,50.02525,19.938,2,19,Ferdynanda Kurasia,Kraków,Poland,0,0,,0,0,0,0,0,0,0,,
225,KrakówOddycha,Airly,50.02076,19.84408,2,30A,Dąbrowa,Kraków,Poland,0,0,,0,0,0,0,0,0,0,,
228,KrakówOddycha,Airly,50.01316,19.90631,2,30,Obozowa,Kraków,Poland,0,0,,0,0,0,0,0,0,0,,
229,Zielonki,Airly,50.13908,19.92678,6,,,Garlica Murowana,Poland,0,0,,0,0,0,0,0,0,0,,
230,Zielonki,Airly,50.1521,19.91981,1,,,Garliczka,Poland,0,0,,0,0,0,0,0,0,0,,
232,Zielonki,Airly,50.13358,19.90557,0,207,Krakowskie Przedmieście,Trojanowice,Poland,0,0,,0,0,0,0,0,0,0,,
233,Zielonki,Airly,50.12359,19.99408,1,20,Krakowska,Bosutów,Poland,0,0,,0,0,0,0,0,0,0,,
234,KrakówOddycha,Airly,49.99848,19.90237,1,6,Mieczykowa,Kraków,Poland,0,0,,0,0,0,0,0,0,0,,
236,Zielonki,Airly,50.14996,19.93387,1,,Ogrodowa,Wola Zachariaszowska,Poland,0,0,,0,0,0,0,0,0,0,,
237,Zielonki,Airly,50.1155,19.98213,1,9,A5,Węgrzce,Poland,0,0,,0,0,0,0,0,0,0,,
238,Zielonki,Airly,50.11083,20.01516,2,,,Batowice,Poland,0,0,,0,0,0,0,0,0,0,,
239,Zielonki,Airly,50.12048,19.97225,1,1,A3,Węgrzce,Poland,0,0,,0,0,0,0,0,0,0,,
240,Zielonki,Airly,50.15067,19.89879,1,,,Januszowice,Poland,0,0,,0,0,0,0,0,0,0,,
241,Zielonki,Airly,50.13302,19.97325,1,8,Jodłowa,Bosutów,Poland,0,0,,0,0,0,0,0,0,0,,
244,Zielonki,Airly,50.1736,19.91405,0,,,Owczary,Poland,0,0,,0,0,0,0,0,0,0,,
245,Zielonki,Airly,50.13136,19.95144,1,39A,Lipowa,Bibice,Poland,0,0,,0,0,0,0,0,0,0,,
246,Zielonki,Airly,50.14824,19.95973,1,12,Graniczna,Michałowice,Poland,0,0,,0,0,0,0,0,0,0,,
247,Zielonki,Airly,50.12742,19.8988,2,17,Ojcowska,Pękowice,Poland,0,0,,0,0,0,0,0,0,0,,
248,Zielonki,Airly,50.17495,19.87731,1,,,Grębynice,Poland,0,0,,0,0,0,0,0,0,0,,
250,Zielonki,Airly,50.14388,19.90942,1,58,Widokowa,Trojanowice,Poland,0,0,,0,0,0,0,0,0,0,,
251,Zielonki,Airly,50.11858,19.92675,1,17A,Galicyjska,Zielonki,Poland,0,0,,0,0,0,0,0,0,0,,
252,Zielonki,Airly,50.12623,19.95412,2,5,Tadeusza Kościuszki,Bibice,Poland,0,0,,0,0,0,0,0,0,0,,
255,Zielonki,Airly,50.11541,19.96665,1,2,Zapole,Węgrzce,Poland,0,0,,0,0,0,0,0,0,0,,
257,Wielka Wieś,Airly,50.16964,19.75134,1,14,Brzozowa,Będkowice,Poland,0,0,,0,0,0,0,0,0,0,,
258,Zielonki,Airly,50.12841,19.97366,2,14,C21,Węgrzce,Poland,0,0,,0,0,0,0,0,0,0,,
260,Wielka Wieś,Airly,50.18402,19.79143,1,76,Krakowska,Bębło,Poland,0,0,,0,0,0,0,0,0,0,,
263,KrakówOddycha,Airly,49.99961,19.96607,2,30,Wyżynna,Kraków,Poland,0,0,,0,0,0,0,0,0,0,,
267,Zielonki,Airly,50.12603,19.90545,2,8,Pod Fortem,Pękowice,Poland,0,0,,0,0,0,0,0,0,0,,
270,Wielka Wieś,Airly,50.15751,19.84511,1,5,Szkolna,Wielka Wieś,Poland,0,0,,0,0,0,0,0,0,0,,
274,Wielka Wieś,Airly,50.1674,19.82838,1,4,Królowej Jadwigi,Biały Kościół,Poland,0,0,,0,0,0,0,0,0,0,,
282,Niepołomice,Airly,50.03586,20.18903,1,38,Skarbowa,Niepołomice,Poland,0,0,,0,0,0,0,0,0,0,,
283,PolskaOddycha,Airly,49.70971,20.42288,1,19,Jana Pawła II,Limanowa,Poland,0,0,,0,0,0,0,0,0,0,,
284,PolskaOddycha,Airly,50.26197,19.56519,1,6,Reja,Olkusz,Poland,0,0,,0,0,0,0,0,0,0,,
285,Gorlice,Airly,49.65876,21.16216,1,9,Krasińskiego,Gorlice,Poland,0,0,,0,0,0,0,0,0,0,,
286,Niepołomice,Airly,49.9765,20.19625,1,,,Suchoraba,Poland,0,0,,0,0,0,0,0,0,0,,
287,Niepołomice,Airly,50.04953,20.32377,1,,,Zabierzów Bocheński,Poland,0,0,,0,0,0,0,0,0,0,,
289,KrakówOddycha,Airly,50.07317,20.02774,2,12,osiedle Kolorowe,Kraków,Poland,0,0,,0,0,0,0,0,0,0,,
290,Niepołomice,Airly,49.99694,20.12962,1,,,Ochmanów,Poland,0,0,,0,0,0,0,0,0,0,,
291,Niepołomice,Airly,50.00325,20.14088,2,,,Zakrzów,Poland,0,0,,0,0,0,0,0,0,0,,
292,Niepołomice,Airly,50.0751,20.35151,1,,,Chobot,Poland,0,0,,0,0,0,0,0,0,0,,
295,PolskaOddycha,Airly,49.70581,20.42246,0,12,Rynek,Limanowa,Poland,0,0,,0,0,0,0,0,0,0,,
296,Niepołomice,Airly,50.01132,20.19464,1,,,Staniątki,Poland,0,0,,0,0,0,0,0,0,0,,
298,Niepołomice,Airly,49.9924,20.18926,0,,,Zagórze,Poland,0,0,,0,0,0,0,0,0,0,,
301,Michałowice,Airly,50.16228,19.94691,1,113,Leśna,Michałowice,Poland,0,0,,0,0,0,0,0,0,0,,
303,PolskaOddycha,Airly,52.20312,21.01341,2,12,Lewicka,Warszawa,Poland,0,0,,0,0,0,0,0,0,0,,
304,Wieliczka,Airly,49.98436,20.06658,2,26,Słowackiego,Wieliczka,Poland,0,0,,0,0,0,0,0,0,0,,
305,Sucha Beskidzka,Airly,49.7367,19.56256,1,161,Role,Sucha Beskidzka,Poland,0,0,,0,0,0,0,0,0,0,,
306,Sucha Beskidzka,Airly,49.74075,19.59304,0,9813,Pułkownika Tadeusza Semika,Sucha Beskidzka,Poland,0,0,,0,0,0,0,0,0,0,,
308,Sucha Beskidzka,Airly,49.75414,19.60485,1,4,Wadowicka,Sucha Beskidzka,Poland,0,0,,0,0,0,0,0,0,0,,
312,Skała,Airly,50.23141,19.85996,1,20,Polna,Skała,Poland,0,0,,0,0,0,0,0,0,0,,
313,Skała,Airly,50.2302,19.8529,1,29,Rynek,Skała,Poland,0,0,,0,0,0,0,0,0,0,,
314,Skała,Airly,50.2249,19.91239,1,,,Przybysławice,Poland,0,0,,0,0,0,0,0,0,0,,
316,Skała,Airly,50.24188,19.9004,2,,,Minoga,Poland,0,0,,0,0,0,0,0,0,0,,
317,Skała,Airly,50.21338,19.9042,2,,,Rzeplin,Poland,0,0,,0,0,0,0,0,0,0,,
318,Skała,Airly,50.19407,19.90049,2,,,Szczodrkowice,Poland,0,0,,0,0,0,0,0,0,0,,
319,Skała,Airly,50.19661,19.87323,1,,Szkolna 30,Cianowice Duże,Poland,0,0,,0,0,0,0,0,0,0,,
320,Michałowice,Airly,50.15141,20.0443,1,,,Pielgrzymowice,Poland,0,0,,0,0,0,0,0,0,0,,
323,Świątniki Górne,Airly,49.95047,19.97319,1,,,Ochojno,Poland,0,0,,0,0,0,0,0,0,0,,
324,Świątniki Górne,Airly,49.93439,19.94447,1,35,Bruchnalskiego,Świątniki Górne,Poland,0,0,,0,0,0,0,0,0,0,,
325,Świątniki Górne,Airly,49.93483,19.96111,1,20,Franciszka Bielowicza,Świątniki Górne,Poland,0,0,,0,0,0,0,0,0,0,,
326,Świątniki Górne,Airly,49.93876,19.97387,1,,,Rzeszotary,Poland,0,0,,0,0,0,0,0,0,0,,
327,Świątniki Górne,Airly,49.94539,19.97312,1,,,Rzeszotary,Poland,0,0,,0,0,0,0,0,0,0,,
329,Michałowice,Airly,50.1315,20.01433,0,,,Książniczki,Poland,0,0,,0,0,0,0,0,0,0,,
331,Michałowice,Airly,50.17185,19.95828,1,107,Warszawka,Michałowice,Poland,0,0,,0,0,0,0,0,0,0,,
332,Michałowice,Airly,50.17502,20.03906,2,,,Zagórzyce Dworskie,Poland,0,0,,0,0,0,0,0,0,0,,
335,Michałowice,Airly,50.16085,19.99761,2,41,Długa,Masłomiąca,Poland,0,0,,0,0,0,0,0,0,0,,
336,Miechów,Airly,50.35279,20.01974,1,31,Jana Sobieskiego,Miechów,Poland,0,0,,0,0,0,0,0,0,0,,
337,PolskaOddycha,Airly,52.23562,21.0112,3,18,Świętokrzyska,Warszawa,Poland,0,0,,0,0,0,0,0,0,0,,
339,Sucha Beskidzka,Airly,49.73312,19.59745,1,185,Podksięże,Sucha Beskidzka,Poland,0,0,,0,0,0,0,0,0,0,,
340,Miechów,Airly,50.3568,20.0287,2,17,Rynek,Miechów,Poland,0,0,,0,0,0,0,0,0,0,,
341,Miechów,Airly,50.36023,20.02675,1,2,Mikołaja Kopernika,Miechów,Poland,0,0,,0,0,0,0,0,0,0,,
342,Miechów,Airly,50.36126,20.0405,1,4,Osiedle Parkowe,Miechów,Poland,0,0,,0,0,0,0,0,0,0,,
343,Miechów,Airly,50.35509,20.03509,1,1A,Szpitalna,Miechów,Poland,0,0,,0,0,0,0,0,0,0,,
344,Miechów,Airly,50.35561,20.01397,2,5,Krótka,Miechów,Poland,0,0,,0,0,0,0,0,0,0,,
345,Sucha Beskidzka,Airly,49.73875,19.61316,2,23,Makowska,Sucha Beskidzka,Poland,0,0,,0,0,0,0,0,0,0,,
346,PolskaOddycha,Airly,50.03273,19.24017,2,8,Dymitra Mendelejewa,Oświęcim,Poland,0,0,,0,0,0,0,0,0,0,,
347,Michałowice,Airly,50.14083,19.97341,1,26,Legionowa,Michałowice,Poland,0,0,,0,0,0,0,0,0,0,,
348,Kłaj,Airly,49.99787,20.23523,1,,,Gruszki,Poland,0,0,,0,0,0,0,0,0,0,,
349,Michałowice,Airly,50.16501,20.03992,1,,,Sieborowice,Poland,0,0,,0,0,0,0,0,0,0,,
350,Michałowice,Airly,50.1838,20.02251,2,,,Wola Więcławska,Poland,0,0,,0,0,0,0,0,0,0,,
352,Michałowice,Airly,50.18514,19.94777,1,,,Kozierów,Poland,0,0,,0,0,0,0,0,0,0,,
353,Michałowice,Airly,50.13715,20.04123,2,,,Raciborowice,Poland,0,0,,0,0,0,0,0,0,0,,
354,Michałowice,Airly,50.14545,20.02757,1,,,Zdzięsławice,Poland,0,0,,0,0,0,0,0,0,0,,
356,Lesznowola,Airly,52.0877,20.94952,3,8,Szkolna,Lesznowola,Poland,0,0,,0,0,0,0,0,0,0,,
357,Kłaj,Airly,49.98218,20.25738,1,,,Łysokanie,Poland,0,0,,0,0,0,0,0,0,0,,
358,Kłaj,Airly,49.97654,20.26035,1,80,Wiejska,Grodkowice,Poland,0,0,,0,0,0,0,0,0,0,,
359,Lesznowola,Airly,52.09078,20.93676,3,60,Gminna,Lesznowola,Poland,0,0,,0,0,0,0,0,0,0,,
360,Lesznowola,Airly,52.09163,21.00233,2,1,Szkolna,Nowa Iwiczna,Poland,0,0,,0,0,0,0,0,0,0,,
361,Lesznowola,Airly,52.07741,20.88999,2,1,Słojewskiego,Łazy,Poland,0,0,,0,0,0,0,0,0,0,,
363,Mogilany,Airly,49.9721,19.89824,1,47,Jana Pawła II,Libertów,Poland,0,0,,0,0,0,0,0,0,0,,
364,Lesznowola,Airly,52.06747,20.93468,2,48,Zielona,Władysławów,Poland,0,0,,0,0,0,0,0,0,0,,
365,Urząd Dzielnicy Wilanów,Airly,52.15983,21.09595,2,19A,Europejska,Warszawa,Poland,0,0,,0,0,0,0,0,0,0,,
366,Michałowice,Airly,50.18022,19.97009,1,,,Wilczkowice,Poland,0,0,,0,0,0,0,0,0,0,,
367,Lesznowola,Airly,52.10219,21.00387,0,19A,Kwiatowa,Mysiadło,Poland,0,0,,0,0,0,0,0,0,0,,
368,Mogilany,Airly,49.94288,19.88499,1,2A,Parkowa,Mogilany,Poland,0,0,,0,0,0,0,0,0,0,,
369,Lesznowola,Airly,52.0826,21.0093,3,6,Nowa,Stara Iwiczna,Poland,0,0,,0,0,0,0,0,0,0,,
370,Lesznowola,Airly,52.11486,20.97427,2,32,Błędna,Zamienie,Poland,0,0,,0,0,0,0,0,0,0,,
371,Kłaj,Airly,49.986,20.23421,1,,,Brzezie,Poland,0,0,,0,0,0,0,0,0,0,,
372,Kłaj,Airly,49.99339,20.29948,1,,,Kłaj,Poland,0,0,,0,0,0,0,0,0,0,,
373,Kłaj,Airly,49.98667,20.3187,1,,,Kłaj,Poland,0,0,,0,0,0,0,0,0,0,,
376,Lesznowola,Airly,52.03985,20.86006,2,2A,Świątkiewicz,Mroków,Poland,0,0,,0,0,0,0,0,0,0,,
377,Lesznowola,Airly,52.09777,20.91026,2,28,Lipowa,Magdalenka,Poland,0,0,,0,0,0,0,0,0,0,,
381,Kłaj,Airly,49.99529,20.26582,1,,,Szarów,Poland,0,0,,0,0,0,0,0,0,0,,
383,Powiat chrzanowski,Airly,50.09007,19.32266,1,9,Generała Andersa,Libiąż,Poland,0,0,,0,0,0,0,0,0,0,,
384,Kłaj,Airly,50.00417,20.25242,1,,,Dąbrowa,Poland,0,0,,0,0,0,0,0,0,0,,
387,Liszki,Airly,49.988,19.77931,2,,,Jeziorzany,Poland,0,0,,0,0,0,0,0,0,0,,
388,Zabierzów,Airly,50.12289,19.70776,1,25,Polaczka,Rudawa,Poland,0,0,,0,0,0,0,0,0,0,,
389,Czernichów,Airly,50.04826,19.64992,2,,,Rybna,Poland,0,0,,0,0,0,0,0,0,0,,
391,Powiat chrzanowski,Airly,50.10788,19.32961,1,6,Piłsudskiego,Libiąż,Poland,0,0,,0,0,0,0,0,0,0,,
392,Zabierzów,Airly,50.11012,19.70053,1,136-154,Józefa Trzaskowskiego,Nielepice,Poland,0,0,,0,0,0,0,0,0,0,,
393,Zielonki,Airly,50.11881,20.0094,2,,,Dziekanowice,Poland,0,0,,0,0,0,0,0,0,0,,
394,Michałowice,Airly,50.15587,20.02762,0,,,Więcławice Stare,Poland,0,0,,0,0,0,0,0,0,0,,
396,Zabierzów,Airly,50.09648,19.71829,2,,,Brzoskwinia,Poland,0,0,,0,0,0,0,0,0,0,,
397,Zabierzów,Airly,50.1246,19.82208,2,37,Narodowa,Brzezie,Poland,0,0,,0,0,0,0,0,0,0,,
398,eurobank,Airly,50.32361,19.20024,2,,Królowej Jadwigi 42,Dąbrowa Górnicza,Poland,0,0,,0,0,0,0,0,0,0,,
399,Iwanowice,Airly,50.20526,20.01381,2,,,Widoma,Poland,0,0,,0,0,0,0,0,0,0,,
401,Iwanowice,Airly,50.26144,19.94861,2,,,Grzegorzowice Wielkie,Poland,0,0,,0,0,0,0,0,0,0,,
403,Lubień,Airly,49.6838,19.9719,1,,,Tenczyn,Poland,0,0,,0,0,0,0,0,0,0,,
409,Liszki,Airly,50.00619,19.769,2,,,Rączna,Poland,0,0,,0,0,0,0,0,0,0,,
410,Krzeszowice,Airly,50.15103,19.56729,2,,,Filipowice,Poland,0,0,,0,0,0,0,0,0,0,,
411,Zabierzów,Airly,50.15869,19.79455,1,24,Jana Pawła II,,Poland,0,0,,0,0,0,0,0,0,0,,
412,Zabierzów,Airly,50.14645,19.76327,2,61,Jana Pawła II,Kobylany,Poland,0,0,,0,0,0,0,0,0,0,,
413,Zabierzów,Airly,50.14756,19.79344,2,16,Szkolna,Bolechowice,Poland,0,0,,0,0,0,0,0,0,0,,
416,Czernichów,Airly,50.01424,19.58572,2,,,Kamień,Poland,0,0,,0,0,0,0,0,0,0,,
418,Czernichów,Airly,49.98902,19.67787,2,2,,Czernichów,Poland,0,0,,0,0,0,0,0,0,0,,
422,Tomaszów Mazowiecki,Airly,51.55568,20.02014,2,8,Piaskowa,Tomaszów Mazowiecki,Poland,0,0,,0,0,0,0,0,0,0,,
423,Ambasador Airly,Airly,50.00664,20.06902,2,,,Czarnochowice,Poland,0,0,,0,0,0,0,0,0,0,,
424,Lubień,Airly,49.64054,19.91574,2,,,Skomielna Biała,Poland,0,0,,0,0,0,0,0,0,0,,
425,Wieliczka,Airly,50.01534,20.11131,2,518,,Węgrzce Wielkie,Poland,0,0,,0,0,0,0,0,0,0,,
426,Wieliczka,Airly,49.98555,20.05996,2,1,Stanisława Moniuszki,Wieliczka,Poland,0,0,,0,0,0,0,0,0,0,,
429,Biskupice (gmina),Airly,49.98539,20.14569,1,,,Bodzanów,Poland,0,0,,0,0,0,0,0,0,0,,
430,Biskupice (gmina),Airly,49.94609,20.15678,1,,,Łazany,Poland,0,0,,0,0,0,0,0,0,0,,
438,Chrzanów,Airly,50.14901,19.37685,2,74B,Śląska,Chrzanów,Poland,0,0,,0,0,0,0,0,0,0,,
439,kameleon.pro – tkaniny obiciowe i akcesoria tapicerskie,Airly,49.86903,19.67146,2,,Jagiellońska 27A,Kalwaria Zebrzydowska,Poland,0,0,,0,0,0,0,0,0,0,,
443,eurobank,Airly,52.18246,21.05581,3,,Sobieskiego 60,Warszawa,Poland,0,0,,0,0,0,0,0,0,0,,
444,Wieliczka,Airly,49.9909,20.03226,2,18A,Krzyszkowicka,Wieliczka,Poland,0,0,,0,0,0,0,0,0,0,,
445,Iwanowice,Airly,50.22293,19.97836,0,77,Droga Wojewódzka 773,Iwanowice Włościańskie,Poland,0,0,,0,0,0,0,0,0,0,,
446,Krzeszowice,Airly,50.16527,19.6234,1,,,Czerna,Poland,0,0,,0,0,0,0,0,0,0,,
447,Iwanowice,Airly,50.24314,19.97672,2,,,Sieciechowice,Poland,0,0,,0,0,0,0,0,0,0,,
448,eurobank,Airly,50.32385,19.18356,2,,3 Maja 14,Dąbrowa Górnicza,Poland,0,0,,0,0,0,0,0,0,0,,
451,Kamionka Wielka (gmina),Airly,49.60937,20.81405,0,,,Mszalnica,Poland,0,0,,0,0,0,0,0,0,0,,
452,Gorlice,Airly,49.67502,21.16759,1,16,"Wyszyńskiego, Miejski Zespół Szkół nr 3",Gorlice,Poland,0,0,,0,0,0,0,0,0,0,,
453,Chrzanów,Airly,50.13482,19.42021,0,5,Dworska,Chrzanów,Poland,0,0,,0,0,0,0,0,0,0,,
454,Kamionka Wielka (gmina),Airly,49.58183,20.85354,1,,,Królowa Górna,Poland,0,0,,0,0,0,0,0,0,0,,
455,Chrzanów,Airly,50.13966,19.39836,1,27,Kościuszki,Chrzanów,Poland,0,0,,0,0,0,0,0,0,0,,
456,Kamionka Wielka (gmina),Airly,49.58758,20.82165,1,,,Królowa Polska,Poland,0,0,,0,0,0,0,0,0,0,,
459,Kamionka Wielka (gmina),Airly,49.58535,20.74622,1,,,Jamnica,Poland,0,0,,0,0,0,0,0,0,0,,
463,Kamionka Wielka (gmina),Airly,49.57903,20.78968,1,,,Kamionka Wielka,Poland,0,0,,0,0,0,0,0,0,0,,
465,Kamionka Wielka (gmina),Airly,49.60475,20.78721,1,109,Mystków,Mystków,Poland,0,0,,0,0,0,0,0,0,0,,
466,KrakówOddycha,Airly,50.09697,19.91477,2,133A,Władysława Łokietka,Kraków,Poland,0,0,,0,0,0,0,0,0,0,,
467,Wielka Wieś,Airly,50.16992,19.80563,1,4,Spacerowa,,Poland,0,0,,0,0,0,0,0,0,0,,
468,PolskaOddycha,Airly,50.01512,18.57741,2,18,3 Maja,Świerklany,Poland,0,0,,0,0,0,0,0,0,0,,
470,PolskaOddycha,Airly,50.0162,20.97971,1,16,Grottgera,Tarnów,Poland,0,0,,0,0,0,0,0,0,0,,
473,Wieliczka,Airly,49.95096,20.03479,1,,,Koźmice Wielkie,Poland,0,0,,0,0,0,0,0,0,0,,
474,PolskaOddycha,Airly,50.01268,21.02352,1,197,Lwowska,Tarnów,Poland,0,0,,0,0,0,0,0,0,0,,
477,PolskaOddycha,Airly,50.34406,19.61494,1,1,Główna,Zalesie Golczowskie,Poland,0,0,,0,0,0,0,0,0,0,,
479,PolskaOddycha,Airly,50.02769,20.9828,1,,Lema,Tarnów,Poland,0,0,,0,0,0,0,0,0,0,,
480,Kamionka Wielka (gmina),Airly,49.56721,20.82852,1,,,Kamionka Wielka,Poland,0,0,,0,0,0,0,0,0,0,,
482,Zabierzów,Airly,50.13761,19.81842,1,80,Świerkowa,Ujazd,Poland,0,0,,0,0,0,0,0,0,0,,
483,Krzeszowice,Airly,50.13651,19.62908,0,4,Grunwaldzka,Krzeszowice,Poland,0,0,,0,0,0,0,0,0,0,,
485,Krzeszowice,Airly,50.11713,19.61655,1,11,Sienkiewicza,Tenczynek,Poland,0,0,,0,0,0,0,0,0,0,,
486,Zabierzów,Airly,50.14819,19.70925,2,56,21 Lipca,Radwanowice,Poland,0,0,,0,0,0,0,0,0,0,,
487,Krzeszowice,Airly,50.13522,19.64129,0,,Długa,Krzeszowice,Poland,0,0,,0,0,0,0,0,0,0,,
488,Zabierzów,Airly,50.12332,19.73173,0,,,Niegoszowice,Poland,0,0,,0,0,0,0,0,0,0,,
489,Zabierzów,Airly,50.10359,19.74085,1,,,Kleszczów,Poland,0,0,,0,0,0,0,0,0,0,,
490,Tatrzański Park Narodowy,Airly,49.27107,19.98183,1,1,,Zakopane,Poland,0,0,,0,0,0,0,0,0,0,,
491,Zabierzów,Airly,50.09358,19.80832,2,38,Sportowa,Szczyglice,Poland,0,0,,0,0,0,0,0,0,0,,
492,SRGZ,Airly,50.17225,19.8985,0,20,Krakowska,,Poland,0,0,,0,0,0,0,0,0,0,,
493,Zabierzów,Airly,50.09971,19.83701,1,122,Krakowska,Rząska,Poland,0,0,,0,0,0,0,0,0,0,,
500,PolskaOddycha,Airly,50.024,19.93216,2,6,Hoffmanowej,Kraków-Podgórze,Poland,0,0,,0,0,0,0,0,0,0,,
501,PolskaOddycha,Airly,50.00858,20.96536,1,78D,Głowackiego,Tarnów,Poland,0,0,,0,0,0,0,0,0,0,,
502,Powiat chrzanowski,Airly,50.08352,19.35197,2,3,Astronautów,,Poland,0,0,,0,0,0,0,0,0,0,,
503,PolskaOddycha,Airly,50.13258,19.78411,2,245,Zielona,Bolechowice,Poland,0,0,,0,0,0,0,0,0,0,,
504,Gorlice,Airly,49.64621,21.17616,1,104,Batorego,Gorlice,Poland,0,0,,0,0,0,0,0,0,0,,
505,PolskaOddycha,Airly,50.2611,18.57323,2,9,Plac Jaśminu,Gliwice,Poland,0,0,,0,0,0,0,0,0,0,,
506,Zielonki,Airly,50.16624,19.87236,0,,Orlich Gniazd,,Poland,0,0,,0,0,0,0,0,0,0,,
507,PolskaOddycha,Airly,50.32885,18.72033,1,15,Małopolska,Gliwice,Poland,0,0,,0,0,0,0,0,0,0,,
509,PolskaOddycha,Airly,50.28993,18.65979,2,5,Kościuszki,Gliwice,Poland,0,0,,0,0,0,0,0,0,0,,
510,Zabierzów,Airly,50.11284,19.69513,0,104,Kalwaryjska,Młynka,Poland,0,0,,0,0,0,0,0,0,0,,
511,PolskaOddycha,Airly,49.59021,20.71657,1,202D,Grunwaldzka,Nowy Sącz,Poland,0,0,,0,0,0,0,0,0,0,,
512,Michałowice,Airly,50.14096,19.98916,1,,,Młodziejowice,Poland,0,0,,0,0,0,0,0,0,0,,
513,Zabierzów,Airly,50.13798,19.73848,0,7,Krakowska,Brzezinka,Poland,0,0,,0,0,0,0,0,0,0,,
514,Zabierzów,Airly,50.15063,19.77785,2,,,Karniowice,Poland,0,0,,0,0,0,0,0,0,0,,
515,Zabierzów,Airly,50.11512,19.74746,2,,Droga Krajowa 79,Kochanów,Poland,0,0,,0,0,0,0,0,0,0,,
516,Zabierzów,Airly,50.12451,19.70192,0,,,Pisary,Poland,0,0,,0,0,0,0,0,0,0,,
518,Kłaj,Airly,49.96602,20.29978,1,,,Łężkowice,Poland,0,0,,0,0,0,0,0,0,0,,
519,Wieliczka,Airly,49.98194,20.07015,2,40,Adama Asnyka,Wieliczka,Poland,0,0,,0,0,0,0,0,0,0,,
521,Ambasador Airly,Airly,50.12066,19.78093,2,63,Przy Torze,Zabierzów,Poland,0,0,,0,0,0,0,0,0,0,,
524,Bochnia Miasto,Airly,49.96945,20.44076,1,29,Konfederatów Barskich,Bochnia,Poland,0,0,,0,0,0,0,0,0,0,,
525,Zielonki,Airly,50.14035,19.91198,2,118,Krakowska,Trojanowice,Poland,0,0,,0,0,0,0,0,0,0,,
526,PolskaOddycha,Airly,50.29812,18.67253,2,6,Norberta Barlickiego,Gliwice,Poland,0,0,,0,0,0,0,0,0,0,,
527,Iwanowice,Airly,50.19779,19.94534,0,,,Damice,Poland,0,0,,0,0,0,0,0,0,0,,
528,Integrated Solutions,Airly,52.21077,20.96787,3,1,Dobosza,Warszawa,Poland,0,0,,0,0,0,0,0,0,0,,
529,PolskaOddycha,Airly,50.14045,18.3885,1,57,Ofiar Oświęcimskich,Górki Śląskie,Poland,0,0,,0,0,0,0,0,0,0,,
531,Świątniki Górne,Airly,49.9206,19.93596,0,,,Olszowice,Poland,0,0,,0,0,0,0,0,0,0,,
532,Maków Podhalański,Airly,49.73014,19.66933,1,51,Wolności,Maków Podhalański,Poland,0,0,,0,0,0,0,0,0,0,,
534,Tymbark (gmina),Airly,49.73223,20.31835,1,,,Tymbark,Poland,0,0,,0,0,0,0,0,0,0,,
536,Podegrodzie (gmina),Airly,49.57597,20.59415,1,,,Podegrodzie,Poland,0,0,,0,0,0,0,0,0,0,,
537,Bukowno,Airly,50.26622,19.46211,1,3,Kolejowa,Bukowno,Poland,0,0,,0,0,0,0,0,0,0,,
539,Powiat chrzanowski,Airly,50.20539,19.51196,0,6,Szkolna,Płoki,Poland,0,0,,0,0,0,0,0,0,0,,
540,Wielka Wieś,Airly,50.14102,19.86301,0,2,Plac Wspólnoty,Szyce,Poland,0,0,,0,0,0,0,0,0,0,,
541,Wielka Wieś,Airly,50.13408,19.8415,2,85,Krakowska,Tomaszowice,Poland,0,0,,0,0,0,0,0,0,0,,
542,Integrated Solutions,Airly,52.21911,21.01723,2,13,Mokotowska,Warszawa,Poland,0,0,,0,0,0,0,0,0,0,,
543,Integrated Solutions,Airly,52.22746,21.08007,2,5,Stanisława Rogalskiego,Warszawa,Poland,0,0,,0,0,0,0,0,0,0,,
544,Integrated Solutions,Airly,52.22117,20.98327,0,17,Juliana Ursyna Niemcewicza,Warszawa,Poland,0,0,,0,0,0,0,0,0,0,,
546,Integrated Solutions,Airly,52.19814,21.12023,2,420/1,Wał Miedzeszyński,Warszawa,Poland,0,0,,0,0,0,0,0,0,0,,
549,Wielka Wieś,Airly,50.12385,19.8746,2,42,Polna,Modlnica,Poland,0,0,,0,0,0,0,0,0,0,,
555,"Przychodnia Medycyny Rodzinnej, Sułkowice",Airly,49.85448,19.79606,1,9,Szkolna,Sułkowice,Poland,0,0,,0,0,0,0,0,0,0,,
557,Alwernia (gmina),Airly,50.08641,19.53265,2,2,Kijowska,Regulice,Poland,0,0,,0,0,0,0,0,0,0,,
558,Alwernia (gmina),Airly,50.08783,19.56177,2,11,Bartosza Głowackiego,Grojec,Poland,0,0,,0,0,0,0,0,0,0,,
559,Czernichów,Airly,49.98917,19.72743,2,,,Wołowice,Poland,0,0,,0,0,0,0,0,0,0,,
560,PolskaOddycha,Airly,50.29479,19.16408,2,253A,Bolesława Prusa,Sosnowiec,Poland,0,0,,0,0,0,0,0,0,0,,
561,Tychy,Airly,50.12558,18.98545,2,29,Bukowa,Tychy,Poland,0,0,,0,0,0,0,0,0,0,,
562,Słomniki,Airly,50.2318,20.13595,2,,,Waganowice,Poland,0,0,,0,0,0,0,0,0,0,,
563,Tomaszów Mazowiecki,Airly,51.54496,20.01564,2,10A,Cegielniana,Tomaszów Mazowiecki,Poland,0,0,,0,0,0,0,0,0,0,,
564,Tomaszów Mazowiecki,Airly,51.53703,20.03126,2,44,Sosnowa,Tomaszów Mazowiecki,Poland,0,0,,0,0,0,0,0,0,0,,
566,Tomaszów Mazowiecki,Airly,51.54857,20.01286,2,103A,Warszawska,Tomaszów Mazowiecki,Poland,0,0,,0,0,0,0,0,0,0,,
569,Tomaszów Mazowiecki,Airly,51.49932,19.99499,2,26,Pod Grotami,Tomaszów Mazowiecki,Poland,0,0,,0,0,0,0,0,0,0,,
570,Tomaszów Mazowiecki,Airly,51.52319,20.0326,2,55F,Parkowa,Tomaszów Mazowiecki,Poland,0,0,,0,0,0,0,0,0,0,,
575,Tomaszów Mazowiecki,Airly,51.52367,20.06596,2,35,Gminna,Tomaszów Mazowiecki,Poland,0,0,,0,0,0,0,0,0,0,,
577,Tomaszów Mazowiecki,Airly,51.53572,20.02454,0,17/25,Nadrzeczna,Tomaszów Mazowiecki,Poland,0,0,,0,0,0,0,0,0,0,,
580,Tomaszów Mazowiecki,Airly,51.53864,19.96322,2,31,Zawadzka,Tomaszów Mazowiecki,Poland,0,0,,0,0,0,0,0,0,0,,
589,Tomaszów Mazowiecki,Airly,51.51826,20.03989,2,78,Na Skarpie,Tomaszów Mazowiecki,Poland,0,0,,0,0,0,0,0,0,0,,
590,Myślenice,Airly,49.85769,19.90317,1,,,Jawornik,Poland,0,0,,0,0,0,0,0,0,0,,
591,Myślenice,Airly,49.83374,20.01524,0,,,Łęki,Poland,0,0,,0,0,0,0,0,0,0,,
592,Powiat chrzanowski,Airly,50.15991,19.52071,0,40,Łokietka,Karniowice,Poland,0,0,,0,0,0,0,0,0,0,,
593,Powiat chrzanowski,Airly,50.06599,19.49456,2,2,Jana Pawła II,Kwaczała,Poland,0,0,,0,0,0,0,0,0,0,,
594,Bochnia Miasto,Airly,49.96516,20.41082,1,12,Generała Jakubowskiego,Bochnia,Poland,0,0,,0,0,0,0,0,0,0,,
595,Bochnia Miasto,Airly,49.96439,20.42178,1,71,Kazimierza Wielkiego,Bochnia,Poland,0,0,,0,0,0,0,0,0,0,,
596,Myślenice,Airly,49.83185,19.93257,1,11,Dyrektora Stanisława Pardyaka,Myślenice,Poland,0,0,,0,0,0,0,0,0,0,,
598,Bochnia Miasto,Airly,49.97031,20.42504,0,6,Oracka,Bochnia,Poland,0,0,,0,0,0,0,0,0,0,,
599,eurobank,Airly,50.22591,18.9753,1,,Panewnicka 5,Katowice,Poland,0,0,,0,0,0,0,0,0,0,,
600,Myślenice,Airly,49.86575,19.9866,2,,,Borzęta,Poland,0,0,,0,0,0,0,0,0,0,,
601,Integrated Solutions,Airly,52.18016,20.94674,0,3,Janiszowska,Warszawa,Poland,0,0,,0,0,0,0,0,0,0,,
604,Zielonki,Airly,50.14574,19.92355,6,,,Garlica Duchowna,Poland,0,0,,0,0,0,0,0,0,0,,
605,PolskaOddycha,Airly,50.05574,19.83033,2,150,Orla,Kraków,Poland,0,0,,0,0,0,0,0,0,0,,
606,PolskaOddycha,Airly,50.08,20.17292,1,73F,Igołomska,Kraków,Poland,0,0,,0,0,0,0,0,0,0,,
609,PolskaOddycha,Airly,50.05426,19.82646,2,,"Orla, OA UJ ",Kraków,Poland,0,0,,0,0,0,0,0,0,0,,
610,Bochnia Miasto,Airly,49.96959,20.42749,2,1,Bernardyńska,Bochnia,Poland,0,0,,0,0,0,0,0,0,0,,
611,Niepołomice,Airly,50.07942,20.33118,1,,,Wola Zabierzowska,Poland,0,0,,0,0,0,0,0,0,0,,
613,Niepołomice,Airly,50.06763,20.31889,1,,,Zabierzów Bocheński,Poland,0,0,,0,0,0,0,0,0,0,,
614,Myślenice,Airly,49.83226,19.94668,1,1A,Stefana Batorego,Myślenice,Poland,0,0,,0,0,0,0,0,0,0,,
615,PolskaOddycha,Airly,50.15202,19.80308,1,225,Krakowska,Zelków,Poland,0,0,,0,0,0,0,0,0,0,,
616,"Stowarzyszenie Pracownia na rzecz Wszystkich Istot ",Airly,53.07963,21.57691,2,6,Insurekcyjna,Ostrołęka,Poland,0,0,,0,0,0,0,0,0,0,,
617,eurobank,Airly,51.36558,19.36984,2,,Kościuszki 4a,Bełchatów,Poland,0,0,,0,0,0,0,0,0,0,,
618,Tychy,Airly,50.10034,18.99106,1,1,Tołstoja,Tychy,Poland,0,0,,0,0,0,0,0,0,0,,
619,PolskaOddycha,Airly,50.43703,18.93261,1,99,Tarnogórska,Świerklaniec,Poland,0,0,,0,0,0,0,0,0,0,,
620,PolskaOddycha,Airly,49.94224,19.87848,1,,,Mogilany,Poland,0,0,,0,0,0,0,0,0,0,,
622,KrakówOddycha,Airly,50.04442,19.9522,2,11,Krakusa,Kraków,Poland,0,0,,0,0,0,0,0,0,0,,
623,Myślenice,Airly,49.84218,19.95665,0,123,Kazimierza Wielkiego,Myślenice,Poland,0,0,,0,0,0,0,0,0,0,,
625,PolskaOddycha,Airly,50.08069,19.99238,2,,prof. Michała Życzkowskiego,Kraków,Poland,0,0,,0,0,0,0,0,0,0,,
627,PolskaOddycha,Airly,49.99657,19.95716,2,8,Stepowa,Kraków,Poland,0,0,,0,0,0,0,0,0,0,,
628,Liszki,Airly,50.03231,19.76156,2,,,Liszki,Poland,0,0,,0,0,0,0,0,0,0,,
629,Bochnia,Airly,50.0032,20.42843,1,28,Droga Wojewódzka 965,Proszówki,Poland,0,0,,0,0,0,0,0,0,0,,
630,Bochnia,Airly,49.93481,20.35754,0,,,Dąbrowica,Poland,0,0,,0,0,0,0,0,0,0,,
631,Bochnia,Airly,49.96295,20.37538,2,,,Łapczyca,Poland,0,0,,0,0,0,0,0,0,0,,
633,Bochnia,Airly,49.98106,20.36897,1,,,Cikowice,Poland,0,0,,0,0,0,0,0,0,0,,
637,Maków Podhalański,Airly,49.69992,19.67611,1,,,Białka,Poland,0,0,,0,0,0,0,0,0,0,,
639,Bochnia,Airly,49.91478,20.39584,1,,,Nieszkowice Wielkie,Poland,0,0,,0,0,0,0,0,0,0,,
640,Bochnia,Airly,50.05737,20.49841,1,,,Bogucice,Poland,0,0,,0,0,0,0,0,0,0,,
641,WarszawaOddycha,Airly,52.30416,21.16455,2,7B,Wyszyńskiego,Zielonka,Poland,0,0,,0,0,0,0,0,0,0,,
642,PolskaOddycha,Airly,50.1344,19.83083,1,49,Ujazdowska,Tomaszowice,Poland,0,0,,0,0,0,0,0,0,0,,
643,Powiat Tarnowski,Airly,49.88192,21.13584,1,23,Tarnowska,Ryglice,Poland,0,0,,0,0,0,0,0,0,0,,
646,Andrychów (gmina),Airly,49.8637,19.39269,1,79,Wadowicka,Inwałd,Poland,0,0,,0,0,0,0,0,0,0,,
647,WarszawaOddycha,Airly,52.16507,20.81115,3,2,Hubala,Pruszków,Poland,0,0,,0,0,0,0,0,0,0,,
648,WarszawaOddycha,Airly,52.25979,21.15329,2,7/11,Kordiana,Warszawa,Poland,0,0,,0,0,0,0,0,0,0,,
649,WarszawaOddycha,Airly,52.32308,21.05849,2,142B,Skarbka z Gór,Warszawa,Poland,0,0,,0,0,0,0,0,0,0,,
650,WarszawaOddycha,Airly,52.20229,20.95192,0,71,Włodarzewska,Warszawa,Poland,0,0,,0,0,0,0,0,0,0,,
652,Kamionka Wielka (gmina),Airly,49.5671,20.88803,1,,,Bogusza,Poland,0,0,,0,0,0,0,0,0,0,,
655,Tychy,Airly,50.08985,18.99426,2,17,Parkowa,Tychy,Poland,0,0,,0,0,0,0,0,0,0,,
656,eurobank,Airly,50.29076,18.91781,1,,Katowicka 7,Świętochłowice,Poland,0,0,,0,0,0,0,0,0,0,,
658,Kurasinski.com,Airly,52.23288,21.01523,0,4,Szpitalna,Warszawa,Poland,0,0,,0,0,0,0,0,0,0,,
659,eurobank,Airly,50.09538,18.54246,1,,Rynek 9,Rybnik,Poland,0,0,,0,0,0,0,0,0,0,,
660,Powiat chrzanowski,Airly,50.02937,19.53493,3,12,Nowowiejska,Okleśna,Poland,0,0,,0,0,0,0,0,0,0,,
661,Jaworzno,Airly,50.22258,19.23275,1,16,Inwalidów Wojennych,Jaworzno,Poland,0,0,,0,0,0,0,0,0,0,,
662,PolskaOddycha,Airly,50.12718,19.8649,0,16,Źródlana,Modlnica,Poland,0,0,,0,0,0,0,0,0,0,,
665,Słomniki,Airly,50.26641,20.09163,2,,,Prandocin,Poland,0,0,,0,0,0,0,0,0,0,,
667,Powiat chrzanowski,Airly,50.11343,19.28122,0,13,Wilcza,Libiąż,Poland,0,0,,0,0,0,0,0,0,0,,
668,Tychy,Airly,50.09109,19.00361,1,45,Zgrzebnioka,Tychy,Poland,0,0,,0,0,0,0,0,0,0,,
669,V-tech,Airly,49.9267,20.18597,2,147,Bilczyce,,Poland,0,0,,0,0,0,0,0,0,0,,
671,Maków Podhalański,Airly,49.73027,19.67934,0,3,Szpitalna,Maków Podhalański,Poland,0,0,,0,0,0,0,0,0,0,,
672,Brzesko,Airly,50.00782,20.69934,1,44,Centralna,Wokowice,Poland,0,0,,0,0,0,0,0,0,0,,
673,Niepołomice,Airly,50.04099,20.16689,1,9-11,Krakowska,Niepołomice,Poland,0,0,,0,0,0,0,0,0,0,,
674,Maków Podhalański,Airly,49.69489,19.70337,2,,,Juszczyn,Poland,0,0,,0,0,0,0,0,0,0,,
675,Świątniki Górne,Airly,49.96103,19.94282,1,,,Wrząsowice,Poland,0,0,,0,0,0,0,0,0,0,,
676,Rzepiennik Strzyżewski,Airly,49.76624,21.06109,1,,,Turza,Poland,0,0,,0,0,0,0,0,0,0,,
677,PolskaOddycha,Airly,49.95468,20.12648,1,,,Sułów,Poland,0,0,,0,0,0,0,0,0,0,,
679,Rzepiennik Strzyżewski,Airly,49.7973,21.04884,1,,,Rzepiennik Biskupi,Poland,0,0,,0,0,0,0,0,0,0,,
680,Słomniki,Airly,50.22982,20.09322,0,,,Niedźwiedź,Poland,0,0,,0,0,0,0,0,0,0,,
681,Słomniki,Airly,50.24302,20.08178,2,2,Wolności,Słomniki,Poland,0,0,,0,0,0,0,0,0,0,,
683,Słomniki,Airly,50.28087,20.03233,2,,,Smroków,Poland,0,0,,0,0,0,0,0,0,0,,
684,EUROTECH Sp. z o.o.,Airly,50.30411,21.43926,1,7,Baczyńskiego,Mielec,Poland,0,0,,0,0,0,0,0,0,0,,
685,Słomniki,Airly,50.24461,20.086,2,2,Osiedle Świerczewskiego,Słomniki,Poland,0,0,,0,0,0,0,0,0,0,,
686,PolskaOddycha,Airly,50.28449,18.59405,2,142,Architektów,Gliwice,Poland,0,0,,0,0,0,0,0,0,0,,
689,PolskaOddycha,Airly,50.30394,19.18912,2,54,Braci Mieroszewskich,Sosnowiec,Poland,0,0,,0,0,0,0,0,0,0,,
690,PolskaOddycha,Airly,50.29466,19.12228,2,58,Czeladzka,Sosnowiec,Poland,0,0,,0,0,0,0,0,0,0,,
691,Powiat chrzanowski,Airly,50.10355,19.32397,1,3,Paderewskiego,Libiąż,Poland,0,0,,0,0,0,0,0,0,0,,
692,WarszawaOddycha,Airly,52.27241,20.98635,2,2,Czesława Rybińskiego,Warszawa,Poland,0,0,,0,0,0,0,0,0,0,,
693,PolskaOddycha,Airly,50.315,19.07144,2,45,Katowicka,Czeladź,Poland,0,0,,0,0,0,0,0,0,0,,
694,PolskaOddycha,Airly,50.32146,19.12669,0,4,Sportowa,Będzin,Poland,0,0,,0,0,0,0,0,0,0,,
695,PolskaOddycha,Airly,50.26795,19.23176,1,12,Czołgistów,Sosnowiec,Poland,0,0,,0,0,0,0,0,0,0,,
696,PolskaOddycha,Airly,50.28108,19.11119,2,2,Grabowa,Sosnowiec,Poland,0,0,,0,0,0,0,0,0,0,,
697,PolskaOddycha,Airly,50.28923,19.26622,1,41,Stefana Starzyńskiego,Sosnowiec,Poland,0,0,,0,0,0,0,0,0,0,,
699,eurobank,Airly,50.81196,19.12534,2,,Aleja Najświętszej Maryi Panny 2,Częstochowa,Poland,0,0,,0,0,0,0,0,0,0,,
700,eurobank,Airly,50.25971,19.01713,1,,3 Maja 21,Katowice,Poland,0,0,,0,0,0,0,0,0,0,,
701,Brzesko,Airly,49.93849,20.56586,1,98,Kasztelana Spytka,Poręba Spytkowska,Poland,0,0,,0,0,0,0,0,0,0,,
702,Brzesko,Airly,49.96642,20.57587,1,1,Zielna,Jasień,Poland,0,0,,0,0,0,0,0,0,0,,
703,Łomianki,Airly,52.36782,20.83592,2,435,Rolnicza,Nowy Dziekanów,Poland,0,0,,0,0,0,0,0,0,0,,
704,Brzesko,Airly,49.94683,20.60817,1,152,Goetzów Okocimskich,Okocim,Poland,0,0,,0,0,0,0,0,0,0,,
705,Brzesko,Airly,49.96804,20.61338,0,51,Bartosza Głowackiego,Brzesko,Poland,0,0,,0,0,0,0,0,0,0,,
706,Brzeszcze (gmina),Airly,49.96013,19.191,2,8,Kostka Jagiełły,Zasole,Poland,0,0,,0,0,0,0,0,0,0,,
707,WarszawaOddycha,Airly,52.19523,21.06355,2,16A,Bernardyńska,Warszawa,Poland,0,0,,0,0,0,0,0,0,0,,
708,Wielka Wieś,Airly,50.1083,19.83855,1,14,Kasztanowa,Modlniczka,Poland,0,0,,0,0,0,0,0,0,0,,
710,Brzesko,Airly,49.969,20.60535,1,1,Słowackiego,Brzesko,Poland,0,0,,0,0,0,0,0,0,0,,
711,Brzesko,Airly,49.96828,20.64401,1,4,św. Prokopa,Jadowniki,Poland,0,0,,0,0,0,0,0,0,0,,
712,Tychy,Airly,50.10899,18.97321,1,6,Kurpińskiego,Tychy,Poland,0,0,,0,0,0,0,0,0,0,,
714,Brzesko,Airly,50.00352,20.6191,1,34,Wiślana,,Poland,0,0,,0,0,0,0,0,0,0,,
715,Chrzanów,Airly,50.13307,19.40725,1,8C,Pogorska,Chrzanów,Poland,0,0,,0,0,0,0,0,0,0,,
716,Liszki,Airly,50.06074,19.69394,2,,,Czułów,Poland,0,0,,0,0,0,0,0,0,0,,
717,Dębica,Airly,50.05377,21.41515,1,5,Cicha,Dębica,Poland,0,0,,0,0,0,0,0,0,0,,
718,Dębica,Airly,50.05091,21.41009,1,2,Rynek,Dębica,Poland,0,0,,0,0,0,0,0,0,0,,
719,Brzesko,Airly,49.99538,20.67793,1,20,Sosnowa,Sterkowiec,Poland,0,0,,0,0,0,0,0,0,0,,
720,Brzesko,Airly,49.97925,20.64275,1,5,Szkolna,Jadowniki,Poland,0,0,,0,0,0,0,0,0,0,,
721,Dębica,Airly,50.05291,21.40905,1,3,Strumskiego,Dębica,Poland,0,0,,0,0,0,0,0,0,0,,
722,Myślenice,Airly,49.82296,19.94951,2,9,Zdrojowa,Myślenice,Poland,0,0,,0,0,0,0,0,0,0,,
723,Wielka Wieś,Airly,50.19468,19.80239,1,7,Dworska,Czajowice,Poland,0,0,,0,0,0,0,0,0,0,,
724,Dębica,Airly,50.03659,21.37984,1,11,Huberta Wagnera,Dębica,Poland,0,0,,0,0,0,0,0,0,0,,
725,Brzesko,Airly,50.00448,20.65496,1,22,Św. Stanisława,Szczepanów,Poland,0,0,,0,0,0,0,0,0,0,,
726,Niepołomice,Airly,50.03205,20.21888,2,1,Szkolna,Niepołomice,Poland,0,0,,0,0,0,0,0,0,0,,
727,Myślenice,Airly,49.82131,20.01929,1,,,Trzemeśnia,Poland,0,0,,0,0,0,0,0,0,0,,
728,WarszawaOddycha,Airly,52.328,20.94464,2,17,Strumykowa,Warszawa,Poland,0,0,,0,0,0,0,0,0,0,,
729,WarszawaOddycha,Airly,52.26425,20.98856,2,20,aleja Wojska Polskiego,Warszawa,Poland,0,0,,0,0,0,0,0,0,0,,
731,PolskaOddycha,Airly,49.91694,18.48434,1,53,,Godów,Poland,0,0,,0,0,0,0,0,0,0,,
732,WarszawaOddycha,Airly,52.23879,20.89526,2,255C,Górczewska,Warszawa,Poland,0,0,,0,0,0,0,0,0,0,,
734,WarszawaOddycha,Airly,52.2704,20.94615,2,81,Broniewskiego,Warszawa,Poland,0,0,,0,0,0,0,0,0,0,,
736,Tychy,Airly,50.11964,18.99954,2,,Korczaka 6,Tychy,Poland,0,0,,0,0,0,0,0,0,0,,
738,eurobank,Airly,50.27728,19.1279,2,,Modrzejowska 6,Sosnowiec,Poland,0,0,,0,0,0,0,0,0,0,,
739,Raszyn (gmina),Airly,52.12724,20.9619,2,47,Długa,Dawidy Bankowe,Poland,0,0,,0,0,0,0,0,0,0,,
740,Jaworzno,Airly,50.20242,19.27112,1,5,Plac Górników,Jaworzno,Poland,0,0,,0,0,0,0,0,0,0,,
742,Jaworzno,Airly,50.21485,19.2646,1,153,Podwale,Jaworzno,Poland,0,0,,0,0,0,0,0,0,0,,
744,Brzeszcze (gmina),Airly,49.9617,19.13784,1,1,Kusocińskiego,Jawiszowice,Poland,0,0,,0,0,0,0,0,0,0,,
747,Andrychów (gmina),Airly,49.8367,19.38316,1,12,Szkolna,Zagórnik,Poland,0,0,,0,0,0,0,0,0,0,,
749,eurobank,Airly,50.25425,19.01738,1,,Pl. Miarki 8,Katowice,Poland,0,0,,0,0,0,0,0,0,0,,
753,Stryszów (gmina),Airly,49.83931,19.68828,1,,,Leśnica,Poland,0,0,,0,0,0,0,0,0,0,,
754,Jaworzno,Airly,50.2142,19.34814,1,53C,Księdza Mroczka,Jaworzno,Poland,0,0,,0,0,0,0,0,0,0,,
756,Jaworzno,Airly,50.2124,19.2558,1,12,Ławczana,Jaworzno,Poland,0,0,,0,0,0,0,0,0,0,,
758,eurobank,Airly,49.62519,20.69195,1,,Rynek 27,Nowy Sącz,Poland,0,0,,0,0,0,0,0,0,0,,
760,WarszawaOddycha,Airly,52.14547,20.70505,2,19,Józefa Piłsudskiego,Brwinów,Poland,0,0,,0,0,0,0,0,0,0,,
761,WarszawaOddycha,Airly,52.15379,21.02028,2,50,Janowskiego,Warszawa,Poland,0,0,,0,0,0,0,0,0,0,,
763,PolskaOddycha,Airly,52.1601,21.21684,3,38,Bystrzycka,Warszawa,Poland,0,0,,0,0,0,0,0,0,0,,
764,WarszawaOddycha,Airly,52.29226,20.85053,0,43,3 Maja,Laski,Poland,0,0,,0,0,0,0,0,0,0,,
766,Mielec,Airly,50.29521,21.42153,2,,"Tańskiego, SP-8",Mielec,Poland,0,0,,0,0,0,0,0,0,0,,
767,PolskaOddycha,Airly,50.32433,18.58363,2,11,Zakopiańska,Gliwice,Poland,0,0,,0,0,0,0,0,0,0,,
768,WarszawaOddycha,Airly,52.17245,21.07586,0,28,Królewicza Jakuba,Warszawa,Poland,0,0,,0,0,0,0,0,0,0,,
772,Wielka Wieś,Airly,50.17812,19.76038,0,81,Kawiory,Będkowice,Poland,0,0,,0,0,0,0,0,0,0,,
774,PolskaOddycha,Airly,49.90652,19.77619,1,,,Wola Radziszowska,Poland,0,0,,0,0,0,0,0,0,0,,
775,PolskaOddycha,Airly,50.30424,18.68969,0,14,Spółdzielcza,Gliwice,Poland,0,0,,0,0,0,0,0,0,0,,
777,PolskaOddycha,Airly,50.0925,18.22361,2,8,Króla Stefana Batorego,Racibórz,Poland,0,0,,0,0,0,0,0,0,0,,
783,Gorlice,Airly,49.69167,21.19727,1,31,Azaliowa,Gorlice,Poland,0,0,,0,0,0,0,0,0,0,,
784,Biskupice (gmina),Airly,49.9639,20.11942,1,,,Biskupice,Poland,0,0,,0,0,0,0,0,0,0,,
788,Gorlice,Airly,49.66373,21.15774,1,,"Generała Józefa Hallera, Miejski Zespół Szkół nr 6",Gorlice,Poland,0,0,,0,0,0,0,0,0,0,,
793,Łomianki,Airly,52.34809,20.85677,2,8,Adama Mickiewicza,Dziekanów Leśny,Poland,0,0,,0,0,0,0,0,0,0,,
794,Krosno,Airly,49.70271,21.76436,1,15,Seweryna Goszczyńskiego,Krosno,Poland,0,0,,0,0,0,0,0,0,0,,
795,Gmina Pawłowice,Airly,49.91212,18.68062,2,2,Nałkowskiej,Golasowice,Poland,0,0,,0,0,0,0,0,0,0,,
798,Gmina Pawłowice,Airly,49.90953,18.65566,2,6,Powstańców,Pielgrzymowice,Poland,0,0,,0,0,0,0,0,0,0,,
799,Gmina Pawłowice,Airly,49.99168,18.71411,2,2,Pszczyńska,Warszowice,Poland,0,0,,0,0,0,0,0,0,0,,
800,Gmina Pawłowice,Airly,49.98643,18.67542,2,7,Szkolna,Krzyżowice,Poland,0,0,,0,0,0,0,0,0,0,,
801,Krosno,Airly,49.6857,21.79701,1,84B,Żeromskiego,Krosno,Poland,0,0,,0,0,0,0,0,0,0,,
802,Gmina Pawłowice,Airly,49.96217,18.70275,2,5,Pukowca,Pawłowice,Poland,0,0,,0,0,0,0,0,0,0,,
803,Gmina Pawłowice,Airly,49.90231,18.70919,2,3,Rolnicza,Jarząbkowice,Poland,0,0,,0,0,0,0,0,0,0,,
804,Powiat chrzanowski,Airly,50.20584,19.55529,1,28,Trzebińska,Lgota,Poland,0,0,,0,0,0,0,0,0,0,,
805,Gmina Pawłowice,Airly,49.96221,18.66985,2,2,Kanarkowa,Pniówek,Poland,0,0,,0,0,0,0,0,0,0,,
809,Powiat chrzanowski,Airly,50.04311,19.58293,2,1,Edukacyjna,Brodła,Poland,0,0,,0,0,0,0,0,0,0,,
810,Niepołomice,Airly,50.01309,20.16551,1,,,Podłęże,Poland,0,0,,0,0,0,0,0,0,0,,
811,Liszki,Airly,50.05679,19.77265,2,,,Cholerzyn,Poland,0,0,,0,0,0,0,0,0,0,,
812,WarszawaOddycha,Airly,52.23219,21.07832,2,4,Bracławska,Warszawa,Poland,0,0,,0,0,0,0,0,0,0,,
813,PolskaOddycha,Airly,52.22916,21.06325,2,27,aleja Stanów Zjednoczonych,Warszawa,Poland,0,0,,0,0,0,0,0,0,0,,
814,Łomianki,Airly,52.34226,20.88769,2,12A,Wiejska,Łomianki,Poland,0,0,,0,0,0,0,0,0,0,,
815,PolskaOddycha,Airly,50.26739,19.17941,2,7,Jedności,Sosnowiec,Poland,0,0,,0,0,0,0,0,0,0,,
816,Borzęcin (gmina),Airly,50.06698,20.70769,0,,,Borzęcin,Poland,0,0,,0,0,0,0,0,0,0,,
817,Saska Kępa z Pasją,Airly,52.23181,21.05869,2,32,Zwycięzców,Warszawa,Poland,0,0,,0,0,0,0,0,0,0,,
819,Łomianki,Airly,52.34432,20.87534,2,163-165,Warszawska,Łomianki,Poland,0,0,,0,0,0,0,0,0,0,,
820,eurobank,Airly,50.05243,19.94958,2,,Starowiślna 79,Kraków,Poland,0,0,,0,0,0,0,0,0,0,,
823,PolskaOddycha,Airly,50.13979,18.99281,2,8,Kwiatów,Tychy,Poland,0,0,,0,0,0,0,0,0,0,,
824,PolskaOddycha,Airly,50.09388,18.5423,1,2,Bolesława Chrobrego,Rybnik,Poland,0,0,,0,0,0,0,0,0,0,,
829,Tychy,Airly,50.1363,18.96136,2,9-14,Browarowa,Tychy,Poland,0,0,,0,0,0,0,0,0,0,,
831,PolskaOddycha,Airly,52.34785,20.89345,2,35,Szymanowskiego,Łomianki Dolne,Poland,0,0,,0,0,0,0,0,0,0,,
832,PolskaOddycha,Airly,50.0714,18.32607,1,48,Raciborska,Kornowac,Poland,0,0,,0,0,0,0,0,0,0,,
833,PolskaOddycha,Airly,50.28558,19.55572,1,3,Głowackiego,Olkusz,Poland,0,0,,0,0,0,0,0,0,0,,
835,eurobank,Airly,50.03839,19.22206,2,,Rynek Główny 11,Oświęcim,Poland,0,0,,0,0,0,0,0,0,0,,
836,eurobank,Airly,50.34691,18.91877,1,,Dworcowa 1,Bytom,Poland,0,0,,0,0,0,0,0,0,0,,
837,eurobank,Airly,49.82293,19.05082,1,,11 Listopada 36,Bielsko-Biała,Poland,0,0,,0,0,0,0,0,0,0,,
838,Wilamowice,Airly,49.91032,19.11203,1,12,Dolna,Stara Wieś,Poland,0,0,,0,0,0,0,0,0,0,,
840,Gorlice,Airly,49.66519,21.13514,0,20,Łysogórska,Gorlice,Poland,0,0,,0,0,0,0,0,0,0,,
841,Gorlice,Airly,49.65741,21.15744,1,,"Rynek, Urząd Miejski w Gorlicach",Gorlice,Poland,0,0,,0,0,0,0,0,0,0,,
842,eurobank,Airly,50.04248,19.94433,2,,Kalwaryjska 30,Kraków,Poland,0,0,,0,0,0,0,0,0,0,,
843,Gorlice,Airly,49.65752,21.13991,1,,"Krakowska, Miejski Zakład Komunikacyjny",Gorlice,Poland,0,0,,0,0,0,0,0,0,0,,
844,eurobank,Airly,50.28307,18.87606,1,,Niedurnego 35,Ruda Śląska,Poland,0,0,,0,0,0,0,0,0,0,,
845,Gorlice,Airly,49.66605,21.16794,1,11,"Biecka, Fabryka Sportu",Gorlice,Poland,0,0,,0,0,0,0,0,0,0,,
846,Krzeszowice,Airly,50.07184,19.64653,3,,,Sanka,Poland,0,0,,0,0,0,0,0,0,0,,
847,Gorlice,Airly,49.64695,21.16944,1,1,Warneńczyka,Gorlice,Poland,0,0,,0,0,0,0,0,0,0,,
849,Gorlice,Airly,49.65956,21.1581,1,16,"3-go Maja, J.J.Wichlińscy stomatologia",Gorlice,Poland,0,0,,0,0,0,0,0,0,0,,
851,eurobank,Airly,50.7847,19.14431,1,,Aleja Pokoju 2,Częstochowa,Poland,0,0,,0,0,0,0,0,0,0,,
852,Gorlice,Airly,49.68681,21.17747,1,4,Graniczna,Gorlice,Poland,0,0,,0,0,0,0,0,0,0,,
854,Gorlice,Airly,49.65744,21.15359,1,,"Krakowska, Miejski Zespół Szkół nr 5",Gorlice,Poland,0,0,,0,0,0,0,0,0,0,,
855,Borzęcin (gmina),Airly,50.10119,20.69828,0,,,Borzęcin,Poland,0,0,,0,0,0,0,0,0,0,,
856,Borzęcin (gmina),Airly,50.02297,20.73824,1,,,Bielcza,Poland,0,0,,0,0,0,0,0,0,0,,
857,KrakówOddycha,Airly,50.03766,19.9906,2,35,Seweryna Goszczyńskiego,Kraków,Poland,0,0,,0,0,0,0,0,0,0,,
858,Kłaj,Airly,49.9813,20.30193,1,,,Targowisko,Poland,0,0,,0,0,0,0,0,0,0,,
859,Powiat chrzanowski,Airly,50.09418,19.39903,2,139,Józefa Piłsudskiego,Zagórze,Poland,0,0,,0,0,0,0,0,0,0,,
861,PolskaOddycha,Airly,49.57233,20.72368,1,50,Mizgałów,Nowy Sącz,Poland,0,0,,0,0,0,0,0,0,0,,
862,Chrzanów,Airly,50.09826,19.42638,1,18,Barlickiego,Pogorzyce,Poland,0,0,,0,0,0,0,0,0,0,,
863,Borzęcin (gmina),Airly,50.02039,20.68583,1,,,Łęki,Poland,0,0,,0,0,0,0,0,0,0,,
867,PolskaOddycha,Airly,50.10684,19.70766,1,122,Józefa Trzaskowskiego,Nielepice,Poland,0,0,,0,0,0,0,0,0,0,,
868,Chrzanów,Airly,50.17274,19.40655,1,10,Stanisława Przybyszewskiego,Luszowice,Poland,0,0,,0,0,0,0,0,0,0,,
870,Chrzanów,Airly,50.17091,19.37314,1,139,Wyzwolenia,Balin,Poland,0,0,,0,0,0,0,0,0,0,,
872,PolskaOddycha,Airly,50.03255,18.50678,2,78,Wiosny Ludów,Marklowice,Poland,0,0,,0,0,0,0,0,0,0,,
874,Krosno,Airly,49.68993,21.74786,1,16,Podkarpacka,Krosno,Poland,0,0,,0,0,0,0,0,0,0,,
875,Krosno,Airly,49.66827,21.7645,1,15,Grunwaldzka,Krosno,Poland,0,0,,0,0,0,0,0,0,0,,
876,Krosno,Airly,49.66947,21.77257,1,16,Franciszka Ksawerego Dmochowskiego,Krosno,Poland,0,0,,0,0,0,0,0,0,0,,
877,Niepołomice,Airly,50.00245,20.16096,1,,,Zakrzowiec,Poland,0,0,,0,0,0,0,0,0,0,,
879,Słomniki,Airly,50.25486,20.05813,2,81A,Kacice,Kacice,Poland,0,0,,0,0,0,0,0,0,0,,
880,Krosno,Airly,49.719,21.71046,1,20,Wyspiańskiego,Krosno,Poland,0,0,,0,0,0,0,0,0,0,,
881,Krosno,Airly,49.70663,21.7498,1,19,Mikołaja Kopernika,Krosno,Poland,0,0,,0,0,0,0,0,0,0,,
883,Zabierzów,Airly,50.0811,19.76422,0,,,Aleksandrowice,Poland,0,0,,0,0,0,0,0,0,0,,
884,Krosno,Airly,49.69573,21.77018,1,12,Aleksandra Fredry,Krosno,Poland,0,0,,0,0,0,0,0,0,0,,
885,Krosno,Airly,49.69667,21.77555,1,4A,Prochownia,Krosno,Poland,0,0,,0,0,0,0,0,0,0,,
886,Jaworzno,Airly,50.24308,19.28896,1,16,Koszarowa,Jaworzno,Poland,0,0,,0,0,0,0,0,0,0,,
887,Krosno,Airly,49.71936,21.71785,0,10,Rzeszowska,Krosno,Poland,0,0,,0,0,0,0,0,0,0,,
888,Krosno,Airly,49.7003,21.72377,1,9,Decowskiego,Krosno,Poland,0,0,,0,0,0,0,0,0,0,,
889,Krosno,Airly,49.68501,21.78389,1,37,Powstańców Śląskich,Krosno,Poland,0,0,,0,0,0,0,0,0,0,,
891,Powiat Tarnowski,Airly,49.95447,20.83456,1,4,Rolnicza,Wojnicz,Poland,0,0,,0,0,0,0,0,0,0,,
892,Powiat Tarnowski,Airly,49.78447,20.9715,1,4,Łuczkiewiczów,Ciężkowice,Poland,0,0,,0,0,0,0,0,0,0,,
893,Tychy,Airly,50.11065,19.00059,2,190,aleja Niepodległości,Tychy,Poland,0,0,,0,0,0,0,0,0,0,,
895,KrakówOddycha,Airly,50.08496,19.878,2,22,osiedle Złota Podkowa,Kraków,Poland,0,0,,0,0,0,0,0,0,0,,
896,PolskaOddycha,Airly,49.56092,20.74453,1,313,Nawojowa,Nawojowa,Poland,0,0,,0,0,0,0,0,0,0,,
897,Powiat Tarnowski,Airly,49.84138,20.79619,0,57,Grabina,Zakliczyn,Poland,0,0,,0,0,0,0,0,0,0,,
899,PolskaOddycha,Airly,49.61189,20.70788,1,19,Królowej Jadwigi,Nowy Sącz,Poland,0,0,,0,0,0,0,0,0,0,,
900,Myślenice,Airly,49.89505,19.87637,0,,,Głogoczów,Poland,0,0,,0,0,0,0,0,0,0,,
901,Powiat Tarnowski,Airly,49.95107,20.92336,0,,,Rzuchowa,Poland,0,0,,0,0,0,0,0,0,0,,
902,Powiat Tarnowski,Airly,49.84065,20.96046,1,4,Wincentego Witosa,Gromnik,Poland,0,0,,0,0,0,0,0,0,0,,
905,PolskaOddycha,Airly,49.56574,20.63196,0,25,Stefana Batorego,Stary Sącz,Poland,0,0,,0,0,0,0,0,0,0,,
906,Bydgoszcz,Airly,53.15107,18.17227,2,4,Wyzwolenia,Bydgoszcz,Poland,0,0,,0,0,0,0,0,0,0,,
908,Powiat chrzanowski,Airly,50.05081,19.38024,2,21,Księdza Karola Wojtyły,Mętków,Poland,0,0,,0,0,0,0,0,0,0,,
909,Andrychów (gmina),Airly,49.85566,19.34666,2,74,Krakowska,Andrychów,Poland,0,0,,0,0,0,0,0,0,0,,
910,Rzepiennik Strzyżewski,Airly,49.78951,21.0858,1,94,,Rzepiennik Biskupi,Poland,0,0,,0,0,0,0,0,0,0,,
911,Rzepiennik Strzyżewski,Airly,49.81374,21.13741,1,,,Olszyny,Poland,0,0,,0,0,0,0,0,0,0,,
912,Bukowno,Airly,50.23572,19.46803,1,4-6,Olkuska,Bukowno,Poland,0,0,,0,0,0,0,0,0,0,,
913,Bukowno,Airly,50.28191,19.44606,1,57,Wodąca,Bukowno,Poland,0,0,,0,0,0,0,0,0,0,,
914,Rzepiennik Strzyżewski,Airly,49.77863,21.12019,1,,,Rzepiennik Suchy,Poland,0,0,,0,0,0,0,0,0,0,,
916,Bukowno,Airly,50.23638,19.42705,1,19,Wiejska,Bukowno,Poland,0,0,,0,0,0,0,0,0,0,,
918,Bukowno,Airly,50.27117,19.46748,1,7B,Leśna,Bukowno,Poland,0,0,,0,0,0,0,0,0,0,,
919,Bukowno,Airly,50.26726,19.49185,1,35,Sosnowa,Bukowno,Poland,0,0,,0,0,0,0,0,0,0,,
920,Bukowno,Airly,50.26388,19.44846,1,185,1 Maja,Bukowno,Poland,0,0,,0,0,0,0,0,0,0,,
921,Bukowno,Airly,50.26291,19.46331,1,3,Pocztowa,Bukowno,Poland,0,0,,0,0,0,0,0,0,0,,
922,Bukowno,Airly,50.28145,19.4295,1,129A,Sławkowska,Bukowno,Poland,0,0,,0,0,0,0,0,0,0,,
923,Bukowno,Airly,50.2846,19.42043,1,245,Sławkowska,Bukowno,Poland,0,0,,0,0,0,0,0,0,0,,
924,Pleśna (gmina),Airly,49.92266,20.94464,1,,,Pleśna,Poland,0,0,,0,0,0,0,0,0,0,,
926,Pleśna (gmina),Airly,49.88632,20.95449,1,,,Lichwin,Poland,0,0,,0,0,0,0,0,0,0,,
929,Nowy Sącz,Airly,49.60809,20.68733,1,133,Władysława Barbackiego,Nowy Sącz,Poland,0,0,,0,0,0,0,0,0,0,,
930,Powiat Tarnowski,Airly,50.13333,20.88517,2,1,Kilińskiego,Żabno,Poland,0,0,,0,0,0,0,0,0,0,,
931,Zabierzów,Airly,50.0962,19.76908,2,,,Burów,Poland,0,0,,0,0,0,0,0,0,0,,
932,Olkusz,Airly,50.27829,19.55379,1,5,Kantego,Olkusz,Poland,0,0,,0,0,0,0,0,0,0,,
933,Olkusz,Airly,50.26158,19.5704,1,2,Kochanowskiego,Olkusz,Poland,0,0,,0,0,0,0,0,0,0,,
934,Olkusz,Airly,50.27954,19.57064,1,15,Skalska,Olkusz,Poland,0,0,,0,0,0,0,0,0,0,,
935,Wielka Wieś,Airly,50.1437,19.8798,2,30,Orlich Gniazd,Giebułtów,Poland,0,0,,0,0,0,0,0,0,0,,
936,Olkusz,Airly,50.28372,19.56355,1,20,Cegielniana,Olkusz,Poland,0,0,,0,0,0,0,0,0,0,,
937,Olkusz,Airly,50.27755,19.5615,1,32,Szpitalna,Olkusz,Poland,0,0,,0,0,0,0,0,0,0,,
938,Olkusz,Airly,50.27759,19.57159,1,29,Francesco Nullo,Olkusz,Poland,0,0,,0,0,0,0,0,0,0,,
939,Olkusz,Airly,50.30077,19.54767,1,67,Długa,Olkusz,Poland,0,0,,0,0,0,0,0,0,0,,
940,Grupa OPEC,Airly,53.50028,18.75946,2,29,Juliusza Słowackiego,Grudziądz,Poland,0,0,,0,0,0,0,0,0,0,,
941,Grupa OPEC,Airly,53.49353,18.7618,2,51,Marszałka Józefa Piłsudskiego,Grudziądz,Poland,0,0,,0,0,0,0,0,0,0,,
942,Pleśna (gmina),Airly,49.95509,20.96297,1,,,Świebodzin,Poland,0,0,,0,0,0,0,0,0,0,,
943,Pleśna (gmina),Airly,49.9391,20.90354,1,,,Szczepanowice,Poland,0,0,,0,0,0,0,0,0,0,,
944,PolskaOddycha,Airly,49.92894,20.92647,1,,,Pleśna,Poland,0,0,,0,0,0,0,0,0,0,,
946,Pleśna (gmina),Airly,49.89192,20.85636,1,,,Janowice,Poland,0,0,,0,0,0,0,0,0,0,,
948,Grupa OPEC,Airly,53.46407,18.72665,2,58A,Śniadeckich,Grudziądz,Poland,0,0,,0,0,0,0,0,0,0,,
949,eurobank,Airly,49.80796,18.98808,1,,Cieszyńska 365,Bielsko-Biała,Poland,0,0,,0,0,0,0,0,0,0,,
950,Grupa OPEC,Airly,53.50229,18.77513,2,1,Dąbrówki,Grudziądz,Poland,0,0,,0,0,0,0,0,0,0,,
953,Grupa OPEC,Airly,53.46557,18.76866,2,10,Nauczycielska,Grudziądz,Poland,0,0,,0,0,0,0,0,0,0,,
954,Grupa OPEC,Airly,53.4528,18.7204,2,50,Konstytucji 3 Maja,Grudziądz,Poland,0,0,,0,0,0,0,0,0,0,,
955,Grupa OPEC,Airly,53.43142,18.72811,2,3,Aleja Sportowców,Grudziądz,Poland,0,0,,0,0,0,0,0,0,0,,
956,WarszawaOddycha,Airly,52.2239,21.0179,2,24/26,Piękna,Warszawa,Poland,0,0,,0,0,0,0,0,0,0,,
957,Chrzanów,Airly,50.11521,19.38456,1,120B,Borowcowa,Chrzanów,Poland,0,0,,0,0,0,0,0,0,0,,
958,PolskaOddycha,Airly,50.13966,18.63724,1,1,Przedszkolna,Czerwionka-Leszczyny,Poland,0,0,,0,0,0,0,0,0,0,,
959,PolskaOddycha,Airly,50.04057,18.3094,3,4,Adama Mickiewicza,Lubomia,Poland,0,0,,0,0,0,0,0,0,0,,
960,PolskaOddycha,Airly,50.343,19.61528,0,1,Główna,Zalesie Golczowskie,Poland,0,0,,0,0,0,0,0,0,0,,
963,PolskaOddycha,Airly,50.03824,18.39608,1, ,Komuny Paryskiej,Pszów,Poland,0,0,,0,0,0,0,0,0,0,,
964,PolskaOddycha,Airly,50.06343,18.42051,1,36,Ofiar Terroru,Rydułtowy,Poland,0,0,,0,0,0,0,0,0,0,,
965,PolskaOddycha,Airly,49.99865,18.45656,1,17,Czyżowicka,Wodzisław Śląski,Poland,0,0,,0,0,0,0,0,0,0,,
966,PolskaOddycha,Airly,50.0476,18.47326,1,17,Józefa Rymera,Radlin,Poland,0,0,,0,0,0,0,0,0,0,,
967,PolskaOddycha,Airly,49.96846,18.52769,1,85,1 Maja,Mszana,Poland,0,0,,0,0,0,0,0,0,0,,
968,PolskaOddycha,Airly,50.15374,18.68383,1,69,Furgoła,Czerwionka-Leszczyny,Poland,0,0,,0,0,0,0,0,0,0,,
969,PolskaOddycha,Airly,49.94521,18.39948,1,30,Wiejska,Gorzyczki,Poland,0,0,,0,0,0,0,0,0,0,,
970,PolskaOddycha,Airly,49.9762,18.22004,1,2,Wojska Polskiego,Owsiszcze,Poland,0,0,,0,0,0,0,0,0,0,,
972,Andrychów (gmina),Airly,49.82922,19.33874,1,2,Centralna,Sułkowice,Poland,0,0,,0,0,0,0,0,0,0,,
973,Andrychów (gmina),Airly,49.81274,19.32834,1,46,,Targanice,Poland,0,0,,0,0,0,0,0,0,0,,
974,Andrychów (gmina),Airly,49.84338,19.30892,2,10,,Roczyny,Poland,0,0,,0,0,0,0,0,0,0,,
975,Andrychów (gmina),Airly,49.82671,19.31928,1,5,Słoneczna,Brzezinka,Poland,0,0,,0,0,0,0,0,0,0,,
976,Chrzanów,Airly,50.12939,19.39391,1,25,Fabryczna,Chrzanów,Poland,0,0,,0,0,0,0,0,0,0,,
977,Andrychów (gmina),Airly,49.8144,19.39102,1,1,Osiedle Szczęśniaki,,Poland,0,0,,0,0,0,0,0,0,0,,
978,Andrychów (gmina),Airly,49.84993,19.34396,2,2,Jarosława Dąbrowskiego,Andrychów,Poland,0,0,,0,0,0,0,0,0,0,,
979,PolskaOddycha,Airly,49.87443,19.68789,1,,,Brody,Poland,0,0,,0,0,0,0,0,0,0,,
980,Chrzanów,Airly,50.09805,19.46514,1,1,Wiosny Ludów,Płaza,Poland,0,0,,0,0,0,0,0,0,0,,
981,Andrychów (gmina),Airly,49.82004,19.37047,1,188,Racławicka,Sułkowice,Poland,0,0,,0,0,0,0,0,0,0,,
982,Andrychów (gmina),Airly,49.86406,19.34131,2,44,Stefana Batorego,Andrychów,Poland,0,0,,0,0,0,0,0,0,0,,
983,Andrychów (gmina),Airly,49.8611,19.35447,1,26,Stanisława Lenartowicza,Andrychów,Poland,0,0,,0,0,0,0,0,0,0,,
984,Tychy,Airly,50.08722,19.01878,1,51,Jedności,Tychy,Poland,0,0,,0,0,0,0,0,0,0,,
987,Tychy,Airly,50.12414,19.04856,1,113,Jaroszowicka,Tychy,Poland,0,0,,0,0,0,0,0,0,0,,
988,Mogilany,Airly,49.9143,19.90318,1,142,Królowej Polski,Włosań,Poland,0,0,,0,0,0,0,0,0,0,,
990,Tomaszów Mazowiecki,Airly,51.52122,19.99499,0,61A,Zielona,Tomaszów Mazowiecki,Poland,0,0,,0,0,0,0,0,0,0,,
991,Tychy,Airly,50.13215,18.97844,2,4,plac Wolności,Tychy,Poland,0,0,,0,0,0,0,0,0,0,,
992,Tychy,Airly,50.14595,18.9993,2,102,Katowicka,Tychy,Poland,0,0,,0,0,0,0,0,0,0,,
993,Tychy,Airly,50.10827,19.04173,2,1,Przejazdowa,Tychy,Poland,0,0,,0,0,0,0,0,0,0,,
995,Tomaszów Mazowiecki,Airly,51.52942,20.03248,2,88,Mireckiego,Tomaszów Mazowiecki,Poland,0,0,,0,0,0,0,0,0,0,,
996,Tomaszów Mazowiecki,Airly,51.5249,20.01703,2,55,Świętego Antoniego,Tomaszów Mazowiecki,Poland,0,0,,0,0,0,0,0,0,0,,
997,Tomaszów Mazowiecki,Airly,51.52616,20.02473,2,8,Jałowcowa,Tomaszów Mazowiecki,Poland,0,0,,0,0,0,0,0,0,0,,
999,Powiat chrzanowski,Airly,50.04574,19.49362,2,4,Chemików,Rozkochów,Poland,0,0,,0,0,0,0,0,0,0,,
1003,Brzeszcze (gmina),Airly,49.98213,19.14774,2,4,Kościelna,Brzeszcze,Poland,0,0,,0,0,0,0,0,0,0,,
1006,Powiat chrzanowski,Airly,50.07057,19.44701,2,54,Krakowska,Babice,Poland,0,0,,0,0,0,0,0,0,0,,
1008,Gmina Pawłowice,Airly,49.96219,18.71878,2,60,Zjednoczenia,Pawłowice,Poland,0,0,,0,0,0,0,0,0,0,,
1010,eurobank,Airly,50.1152,18.98916,2,,Grota-Roweckiego 61,Tychy,Poland,0,0,,0,0,0,0,0,0,0,,
1011,PolskaOddycha,Airly,50.30864,19.00697,1,,Stanisława Rzepusa,Siemianowice Śląskie,Poland,0,0,,0,0,0,0,0,0,0,,
1012,Gogolin,Airly,50.49131,18.02188,2,20,Strzelecka,Gogolin,Poland,0,0,,0,0,0,0,0,0,0,,
1014,KrakówOddycha,Airly,50.05516,19.94702,0,38,Starowiślna,Kraków,Poland,0,0,,0,0,0,0,0,0,0,,
1016,eurobank,Airly,52.19885,20.93395,3,,Jutrzenki 137 A,Warszawa,Poland,0,0,,0,0,0,0,0,0,0,,
1018,Wielka Wieś,Airly,50.16917,19.82711,1,172,Krakowska,Biały Kościół,Poland,0,0,,0,0,0,0,0,0,0,,
1022,eurobank,Airly,50.2032,19.27548,1,,Rynek Główny 2,Jaworzno,Poland,0,0,,0,0,0,0,0,0,0,,
1023,Tomaszów Mazowiecki,Airly,51.51345,20.04361,2,113,Ludwikowska,Tomaszów Mazowiecki,Poland,0,0,,0,0,0,0,0,0,0,,
1025,Tomaszów Mazowiecki,Airly,51.53077,20.0109,2,1,Prezydenta Mościckiego,Tomaszów Mazowiecki,Poland,0,0,,0,0,0,0,0,0,0,,
1026,eurobank,Airly,50.0385,19.94685,2,30,Krzemionki,Kraków,Poland,0,0,,0,0,0,0,0,0,0,,
1027,Zielonki,Airly,50.15728,19.89491,0,19,Krakowska,,Poland,0,0,,0,0,0,0,0,0,0,,
1028,Mielec,Airly,50.28453,21.46564,1,,"Władysława Warneńczyka, SP-11",Mielec,Poland,0,0,,0,0,0,0,0,0,0,,
1029,eurobank,Airly,50.07874,20.02901,2,,Teatralne 3,Kraków,Poland,0,0,,0,0,0,0,0,0,0,,
1032,Mielec,Airly,50.29033,21.41407,1,,"Kilińskiego, SP-1",Mielec,Poland,0,0,,0,0,0,0,0,0,0,,
1034,Wielka Wieś,Airly,50.11893,19.85588,2,10,świętej Faustyny,Modlniczka,Poland,0,0,,0,0,0,0,0,0,0,,
1035,Tychy,Airly,50.10578,18.98624,1,20,Piłsudskiego,Tychy,Poland,0,0,,0,0,0,0,0,0,0,,
1036,Mielec,Airly,50.29645,21.43605,2,,"Grunwaldzka, SP-7",Mielec,Poland,0,0,,0,0,0,0,0,0,0,,
1037,KrakówOddycha,Airly,50.0487,20.10157,1,11,Dymarek,Kraków,Poland,0,0,,0,0,0,0,0,0,0,,
1043,Tomaszów Mazowiecki,Airly,51.53758,20.01818,2,50,Niemcewicza,Tomaszów Mazowiecki,Poland,0,0,,0,0,0,0,0,0,0,,
1046,eurobank,Airly,52.23444,21.01189,3,,Jasna 10,Warszawa,Poland,0,0,,0,0,0,0,0,0,0,,
1047,Tomaszów Mazowiecki,Airly,51.5335,19.99636,2,23-25,Legionów,Tomaszów Mazowiecki,Poland,0,0,,0,0,0,0,0,0,0,,
1048,Powiat chrzanowski,Airly,50.19698,19.42319,1,25,Jana III Sobieskiego,Trzebinia,Poland,0,0,,0,0,0,0,0,0,0,,
1049,Jordanów,Airly,49.64785,19.82065,2,160,Adama Mickiewicza,Jordanów,Poland,0,0,,0,0,0,0,0,0,0,,
1050,Tychy,Airly,50.12364,18.98052,2,5,Begonii,Tychy,Poland,0,0,,0,0,0,0,0,0,0,,
1054,Tomaszów Mazowiecki,Airly,51.5311,19.99626,0,35,Legionów,Tomaszów Mazowiecki,Poland,0,0,,0,0,0,0,0,0,0,,
1055,SPZOZ w Laskowej,Airly,49.76145,20.45098,1,,,Laskowa,Poland,0,0,,0,0,0,0,0,0,0,,
1056,Tomaszów Mazowiecki,Airly,51.52735,20.00275,2,13,Słowackiego,Tomaszów Mazowiecki,Poland,0,0,,0,0,0,0,0,0,0,,
1059,eurobank,Airly,52.24816,21.04736,3,,Skaryszewska 2 / Praga Płd.,Warszawa,Poland,0,0,,0,0,0,0,0,0,0,,
1060,Jordanów,Airly,49.64768,19.82978,2,7,Kolejowa,Jordanów,Poland,0,0,,0,0,0,0,0,0,0,,
1065,eurobank,Airly,50.07891,19.97174,2,,Pilotów 39,Kraków,Poland,0,0,,0,0,0,0,0,0,0,,
1066,eurobank,Airly,52.19525,21.02368,2,,Puławska 108-112,Warszawa,Poland,0,0,,0,0,0,0,0,0,0,,
1068,KrakówOddycha,Airly,50.10802,19.89612,1,2A,Azaliowa,Kraków,Poland,0,0,,0,0,0,0,0,0,0,,
1069,eurobank,Airly,52.215,20.98041,2,,Grójecka 59,Warszawa,Poland,0,0,,0,0,0,0,0,0,0,,
1070,PolskaOddycha,Airly,50.00287,19.89198,1,26-32,Profesora Geremka,Kraków,Poland,0,0,,0,0,0,0,0,0,0,,
1071,eurobank,Airly,52.2298,20.91474,2,,Powstańców Śląskich 45,Warszawa,Poland,0,0,,0,0,0,0,0,0,0,,
1072,eurobank,Airly,52.16061,21.0279,3,,Aleja Komisji Edukacji Narodowej 105,Warszawa,Poland,0,0,,0,0,0,0,0,0,0,,
1073,Stowarzyszenie Pracownia na rzecz Wszystkich Istot,Airly,49.76031,19.06935,1,17,Jasna,Bystra,Poland,0,0,,0,0,0,0,0,0,0,,
1074,eurobank,Airly,52.24234,20.99543,2,,aleja Solidarności 113,Warszawa,Poland,0,0,,0,0,0,0,0,0,0,,
1078,Myślenice,Airly,49.82806,19.88781,1,,,Bysina,Poland,0,0,,0,0,0,0,0,0,0,,
1079,eurobank,Airly,52.1515,21.05841,2,143K,Nowoursynowska,Warszawa,Poland,0,0,,0,0,0,0,0,0,0,,
1083,Powiat chrzanowski,Airly,50.04078,19.44029,2,46,Wadowicka,Jankowice,Poland,0,0,,0,0,0,0,0,0,0,,
1084,Gogolin,Airly,50.53947,18.07609,1,5,plac Myśliwca,Kamień Śląski,Poland,0,0,,0,0,0,0,0,0,0,,
1086,Raszyn (gmina),Airly,52.15466,20.9236,2,2,Szkolna,Raszyn,Poland,0,0,,0,0,0,0,0,0,0,,
1088,Brzeszcze (gmina),Airly,49.98589,19.15697,2,39,Ofiar Oświęcimia,Brzeszcze,Poland,0,0,,0,0,0,0,0,0,0,,
1091,eurobank,Airly,52.22557,21.08253,2,,Bora Komorowskiego 37,Warszawa,Poland,0,0,,0,0,0,0,0,0,0,,
1092,Zielonki,Airly,50.15685,19.87849,0,,Młyńska,Januszowice,Poland,0,0,,0,0,0,0,0,0,0,,
1094,Michałowice,Airly,50.15794,19.97918,1,1,pl. Józefa Piłsudskiego,Michałowice,Poland,0,0,,0,0,0,0,0,0,0,,
1095,PolskaOddycha,Airly,50.24726,19.16138,1,84,Wojska Polskiego,Sosnowiec,Poland,0,0,,0,0,0,0,0,0,0,,
1096,eurobank,Airly,50.06448,19.93176,2,,Karmelicka 14,Kraków,Poland,0,0,,0,0,0,0,0,0,0,,
1098,Brzeszcze (gmina),Airly,50.00569,19.15737,0,65,Bór,Brzeszcze,Poland,0,0,,0,0,0,0,0,0,0,,
1101,eurobank,Airly,50.01155,20.98384,1,,Krakowska 5,Tarnów,Poland,0,0,,0,0,0,0,0,0,0,,
1102,eurobank,Airly,50.29486,18.66806,2,,Zwycięstwa 12,Gliwice,Poland,0,0,,0,0,0,0,0,0,0,,
1103,Przedsiębiorstwo Energetyki Cieplnej w Płońsku,Airly,52.62263,20.36668,0,50,Płocka,Płońsk,Poland,0,0,,0,0,0,0,0,0,0,,
1104,Częstochowa,Airly,50.83586,19.13667,2,30,Jerzego Kukuczki,Częstochowa,Poland,0,0,,0,0,0,0,0,0,0,,
1105,Gorlice,Airly,49.65117,21.18554,1,46,Dukielska,Gorlice,Poland,0,0,,0,0,0,0,0,0,0,,
1106,Łomianki,Airly,52.35155,20.82664,2,18,Zagórze,Sadowa,Poland,0,0,,0,0,0,0,0,0,0,,
1109,eurobank,Airly,52.17523,21.00064,3,,Obrzeżna 7a,Warszawa,Poland,0,0,,0,0,0,0,0,0,0,,
1110,Częstochowa,Airly,50.82834,19.11784,2,66,aleja Armii Krajowej,Częstochowa,Poland,0,0,,0,0,0,0,0,0,0,,
1112,Częstochowa,Airly,50.79366,19.10059,1,5/7,Ułańska,Częstochowa,Poland,0,0,,0,0,0,0,0,0,0,,
1113,eurobank,Airly,50.29457,18.9492,1,,Wolności 41,Chorzów,Poland,0,0,,0,0,0,0,0,0,0,,
1114,Częstochowa,Airly,50.81989,19.06624,1,22,Elbląska,Częstochowa,Poland,0,0,,0,0,0,0,0,0,0,,
1115,Mielec,Airly,50.24282,21.49142,1,,"Wandy, SP-12",Mielec,Poland,0,0,,0,0,0,0,0,0,0,,
1116,eurobank,Airly,50.29734,18.95408,1,,Rynek 11,Chorzów,Poland,0,0,,0,0,0,0,0,0,0,,
1117,Mielec,Airly,50.31798,21.48723,1,2,Pogodna,Mielec,Poland,0,0,,0,0,0,0,0,0,0,,
1118,EUROTECH Sp. z o.o.,Airly,50.31632,21.45427,2,,Strefowa,Mielec,Poland,0,0,,0,0,0,0,0,0,0,,
1120,Łomianki,Airly,52.33224,20.88972,2,51,Kolejowa,Łomianki,Poland,0,0,,0,0,0,0,0,0,0,,
1122,Łomianki,Airly,52.35867,20.86326,2,244A,Rolnicza,Kiełpin,Poland,0,0,,0,0,0,0,0,0,0,,
1123,eurobank,Airly,50.299,18.6759,2,,Bohaterów Getta Warszawskiego 5a,Gliwice,Poland,0,0,,0,0,0,0,0,0,0,,
1125,Mielec,Airly,50.29138,21.44112,1,,"Żeromskiego, SP-3",Mielec,Poland,0,0,,0,0,0,0,0,0,0,,
1126,Tomaszów Mazowiecki,Airly,51.5469,20.02353,2,20,Garbarska,Tomaszów Mazowiecki,Poland,0,0,,0,0,0,0,0,0,0,,
1128,PolskaOddycha,Airly,50.2859,21.45083,1,10,Broniewskiego,Mielec,Poland,0,0,,0,0,0,0,0,0,0,,
1131,PolskaOddycha,Airly,50.33533,21.51003,1,,,Wola Chorzelowska,Poland,0,0,,0,0,0,0,0,0,0,,
1132,Łomianki,Airly,52.33735,20.89482,2,73,Warszawska,Łomianki,Poland,0,0,,0,0,0,0,0,0,0,,
1133,Wielka Wieś,Airly,50.12976,19.86239,1,2,Sportowa,Modlnica,Poland,0,0,,0,0,0,0,0,0,0,,
2082,Aviva,Airly,51.74904,19.48737,0,,Skierniewicka 3/5 lok2,Łódź,Poland,0,0,,0,0,0,0,0,0,0,,
2083,Rybnik,Airly,50.13314,18.48543,2,ZSP 15,Gzelska 7,"Rybnik, Chwałęcice",Poland,0,0,,0,0,0,0,0,0,0,,
2085,Aviva,Airly,52.52753,21.68737,2,,Sadzewicz 38,Łochów,Poland,0,0,,0,0,0,0,0,0,0,,
2088,Tomaszów Mazowiecki,Airly,51.53022,20.0324,2,96A,Majowa,Tomaszów Mazowiecki,Poland,0,0,,0,0,0,0,0,0,0,,
2089,Aviva,Airly,49.88182,19.22185,2,,Hutnika 2/40,Kęty,Poland,0,0,,0,0,0,0,0,0,0,,
2090,Niepołomice,Airly,49.99271,20.17261,1,,,Słomiróg,Poland,0,0,,0,0,0,0,0,0,0,,
2091,Rybnik,Airly,50.10001,18.51734,1,ZS 3,Orzepowicka 15a,"Rybnik, Maroko-Nowiny",Poland,0,0,,0,0,0,0,0,0,0,,
2092,Łomianki,Airly,52.34392,20.89889,2,24,Fabryczna,Łomianki Dolne,Poland,0,0,,0,0,0,0,0,0,0,,
2093,Aviva,Airly,50.09788,18.54448,2,,Gliwicka 3,Rybnik,Poland,0,0,,0,0,0,0,0,0,0,,
2094,Rybnik,Airly,50.09058,18.52614,1,SP 34,W. Reymonta 69,"Rybnik, Smolna",Poland,0,0,,0,0,0,0,0,0,0,,
2095,Rybnik,Airly,50.0692,18.54822,1,LO 4,J. 1 Maja 91a,"Rybnik, Chwałowice",Poland,0,0,,0,0,0,0,0,0,0,,
2097,Serock (gmina),Airly,52.49033,20.98104,2,10,Wspólna,Jachranka,Poland,0,0,,0,0,0,0,0,0,0,,
2098,Zielonki,Airly,50.1026,19.91751,1,12,Fiołkowa,Zielonki,Poland,0,0,,0,0,0,0,0,0,0,,
2101,Raszyn (gmina),Airly,52.10386,20.89039,3,5,Wierzbowa,Słomin,Poland,0,0,,0,0,0,0,0,0,0,,
2102,Aviva,Airly,53.01003,18.58277,0,,Bydgoska 56/7,Toruń,Poland,0,0,,0,0,0,0,0,0,0,,
2104,Zembrzyce (gmina),Airly,49.77827,19.60148,1,,,Zembrzyce,Poland,0,0,,0,0,0,0,0,0,0,,
2106,Wilamowice,Airly,49.90121,19.16895,2,108,Krakowska,Hecznarowice,Poland,0,0,,0,0,0,0,0,0,0,,
2107,Rybnik,Airly,50.097,18.54938,2,ZST,T. Kościuszki 5,"Rybnik, Śródmieście",Poland,0,0,,0,0,0,0,0,0,0,,
2108,Lubień,Airly,49.68446,19.91165,2,,,Krzeczów,Poland,0,0,,0,0,0,0,0,0,0,,
2109,Aviva,Airly,51.75219,18.07871,2,20,Polna 20,Kalisz,Poland,0,0,,0,0,0,0,0,0,0,,
2110,Rybnik,Airly,50.0812,18.5269,2,ZSP 9,Wodzisławska 123,"Rybnik, Zamysłów",Poland,0,0,,0,0,0,0,0,0,0,,
2111,Tomaszów Mazowiecki,Airly,51.52373,20.05017,2,78,Białobrzeska,Tomaszów Mazowiecki,Poland,0,0,,0,0,0,0,0,0,0,,
2114,Aviva,Airly,50.34497,18.20814,2,,Głowackiego 1,Kędzierzyn-Koźle,Poland,0,0,,0,0,0,0,0,0,0,,
2118,Przedsiębiorstwo Energetyki Cieplnej w Płońsku,Airly,52.61971,20.34217,2,162,Płocka,Płońsk,Poland,0,0,,0,0,0,0,0,0,0,,
2121,Aviva,Airly,50.80938,19.11355,2,,Śląska 12,Częstochowa,Poland,0,0,,0,0,0,0,0,0,0,,
2123,Zabierzów,Airly,50.11644,19.80132,2,,Wapienna,Zabierzów,Poland,0,0,,0,0,0,0,0,0,0,,
2124,Aviva,Airly,49.82518,19.04997,1,,Cyniarska 36,Bielsko-Biała,Poland,0,0,,0,0,0,0,0,0,0,,
2125,Gorlice,Airly,49.64971,21.1652,1,25A,"Węgierska, Szpital Specjalistyczny",Gorlice,Poland,0,0,,0,0,0,0,0,0,0,,
2126,Jordanów,Airly,49.6659,19.8461,1,131,Generała Stanisława Maczka,Jordanów,Poland,0,0,,0,0,0,0,0,0,0,,
2127,Myślenice,Airly,49.82352,19.84178,1,,,Jasienica,Poland,0,0,,0,0,0,0,0,0,0,,
2128,Tomaszów Mazowiecki,Airly,51.5419,20.0296,2,46,Popiełuszki,Tomaszów Mazowiecki,Poland,0,0,,0,0,0,0,0,0,0,,
2129,Aviva,Airly,52.20994,20.92862,2,26,Szczęsna 9A,Warszawa,Poland,0,0,,0,0,0,0,0,0,0,,
2131,Aviva,Airly,50.00946,20.97113,1,,Kościuszki 32A/lok112,Tarnów,Poland,0,0,,0,0,0,0,0,0,0,,
2132,Brzeszcze (gmina),Airly,49.96858,19.14144,2,26,os. Paderewskiego,Jawiszowice,Poland,0,0,,0,0,0,0,0,0,0,,
2133,Mango Resort&Spa,Airly,50.18604,19.64477,1,,Unnamed Road,Paczółtowice,Poland,0,0,,0,0,0,0,0,0,0,,
2136,Aviva,Airly,49.69334,21.76441,1,,Rynek 17,Krosno,Poland,0,0,,0,0,0,0,0,0,0,,
2137,Aviva,Airly,50.21347,18.97952,1,,Zbożowa 38,Katowice,Poland,0,0,,0,0,0,0,0,0,0,,
2139,Aviva,Airly,52.23521,18.24834,2,,Noskowskiego 1A lok.141,Konin,Poland,0,0,,0,0,0,0,0,0,0,,
2140,Aviva,Airly,50.00965,20.99369,1,,Dąbrowskiego 21,Tarnów,Poland,0,0,,0,0,0,0,0,0,0,,
2142,Aviva,Airly,50.26298,19.01096,1,,Dąbrówki 12,Katowice,Poland,0,0,,0,0,0,0,0,0,0,,
2143,Aviva,Airly,52.24059,21.08169,2,,Stanów Zjednoczonych 59,Warszawa,Poland,0,0,,0,0,0,0,0,0,0,,
2145,Aviva,Airly,49.81514,19.0428,2,,Młyńska 8,Bielsko-Biała,Poland,0,0,,0,0,0,0,0,0,0,,
2147,Tomaszów Mazowiecki,Airly,51.53143,20.02298,2,2,Dolna,Tomaszów Mazowiecki,Poland,0,0,,0,0,0,0,0,0,0,,
2149,Myszków,Airly,50.58326,19.33644,2,20,Batorego,Myszków,Poland,0,0,,0,0,0,0,0,0,0,,
2150,Aviva,Airly,50.8158,19.11761,2,,Jasnogórska 27,Częstochowa,Poland,0,0,,0,0,0,0,0,0,0,,
2151,Aviva,Airly,53.12764,18.00422,3,,Gdańska 27,Bydgoszcz,Poland,0,0,,0,0,0,0,0,0,0,,
2153,Aviva,Airly,49.62489,20.69002,1,,Rynek 13,Nowy Sącz,Poland,0,0,,0,0,0,0,0,0,0,,
2154,The British School,Airly,52.18918,21.0555,2,15,Bolesława Limanowskiego,Warszawa,Poland,0,0,,0,0,0,0,0,0,0,,
2155,Aviva,Airly,53.7701,20.5096,2,,Wyszyńskiego 1,Olsztyn,Poland,0,0,,0,0,0,0,0,0,0,,
2156,Aviva,Airly,51.76161,19.49224,2,,Sucha 2/4 lok.U4,Łódź,Poland,0,0,,0,0,0,0,0,0,0,,
2158,Skała,Airly,50.19308,19.85302,1,,,Smardzowice,Poland,0,0,,0,0,0,0,0,0,0,,
2161,Aviva,Airly,49.83312,19.93991,2,,Juliusza Słowackiego 10,Myślenice,Poland,0,0,,0,0,0,0,0,0,0,,
2162,Aviva,Airly,53.02421,18.60798,2,,Lelewela 33 bud. ARPOL,Toruń,Poland,0,0,,0,0,0,0,0,0,0,,
2163,Wilamowice,Airly,49.87726,19.14072,1,28,św. Floriana,Pisarzowice,Poland,0,0,,0,0,0,0,0,0,0,,
2164,Aviva,Airly,53.78945,20.48175,2,,Wojska Polskiego 19/11,Olsztyn,Poland,0,0,,0,0,0,0,0,0,0,,
2165,Tomaszów Mazowiecki,Airly,51.54101,20.03457,2,40,Żeromskiego,Tomaszów Mazowiecki,Poland,0,0,,0,0,0,0,0,0,0,,
2170,Brzesko,Airly,50.03527,20.61173,1,,Rudzka,Bucze,Poland,0,0,,0,0,0,0,0,0,0,,
2172,Tomaszów Mazowiecki,Airly,51.49184,19.98958,2,32,Nagórzycka,Tomaszów Mazowiecki,Poland,0,0,,0,0,0,0,0,0,0,,
2173,Aviva,Airly,51.76349,20.25229,2,,Konstytucji 3-go Maja 22,Rawa Mazowiecka,Poland,0,0,,0,0,0,0,0,0,0,,
2174,Rybnik,Airly,50.14386,18.54053,1,ZSP 4,Komisji Edukacji Narodowej 29,"Rybnik, Golejów",Poland,0,0,,0,0,0,0,0,0,0,,
2175,Zembrzyce (gmina),Airly,49.78398,19.62964,1,,,Marcówka,Poland,0,0,,0,0,0,0,0,0,0,,
2178,Myszków,Airly,50.5763,19.33012,2,26,Kościuszki,Myszków,Poland,0,0,,0,0,0,0,0,0,0,,
2179,Aviva,Airly,53.69747,19.96363,2,,Czarnieckiego 21/13,Ostróda,Poland,0,0,,0,0,0,0,0,0,0,,
2181,Zembrzyce (gmina),Airly,49.77848,19.56194,1,,,Tarnawa Dolna,Poland,0,0,,0,0,0,0,0,0,0,,
2182,Tomaszów Mazowiecki,Airly,51.54008,20.0032,2,3,Paszkowskiego,Tomaszów Mazowiecki,Poland,0,0,,0,0,0,0,0,0,0,,
2183,Zembrzyce (gmina),Airly,49.78336,19.52703,1,,,Śleszowice,Poland,0,0,,0,0,0,0,0,0,0,,
2185,Aviva,Airly,50.07228,19.89589,2,,Przybyszewskiego 56,Kraków,Poland,0,0,,0,0,0,0,0,0,0,,
2190,Aviva,Airly,52.54147,19.69667,2,1,Misjonarska,Płock,Poland,0,0,,0,0,0,0,0,0,0,,
2191,Aviva,Airly,52.25574,20.99337,2,,Inflancka 4A,Warszawa,Poland,0,0,,0,0,0,0,0,0,0,,
2192,Aviva,Airly,50.03736,21.99836,1,,Moniuszki 11,Rzeszów,Poland,0,0,,0,0,0,0,0,0,0,,
2193,Brzeszcze (gmina),Airly,49.98506,19.19483,1,39,Oświęcimska,Skidziń,Poland,0,0,,0,0,0,0,0,0,0,,
2195,Aviva,Airly,49.96842,20.61232,1,,Głowackiego 49,Brzesko,Poland,0,0,,0,0,0,0,0,0,0,,
2196,Tomaszów Mazowiecki,Airly,51.52372,19.99596,2,8,Poziomkowa,Tomaszów Mazowiecki,Poland,0,0,,0,0,0,0,0,0,0,,
2198,Rybnik,Airly,50.16468,18.54691,1,ZSP 3,B. Kuglera 8a,"Rybnik, Ochojec",Poland,0,0,,0,0,0,0,0,0,0,,
2199,Aviva,Airly,50.29355,21.43051,1,,Jagiellończyka 13,Mielec,Poland,0,0,,0,0,0,0,0,0,0,,
2200,Aviva,Airly,52.55158,18.49824,3,,Spichlerna 7,Piotrków Kujawski,Poland,0,0,,0,0,0,0,0,0,0,,
2201,Myszków,Airly,50.57324,19.30733,2,1,Leśna,Myszków,Poland,0,0,,0,0,0,0,0,0,0,,
2202,Rybnik,Airly,50.09638,18.58391,2,SP 3,Wolna 17,"Rybnik, Paruszowiec-Piaski",Poland,0,0,,0,0,0,0,0,0,0,,
2204,Aviva,Airly,52.18582,21.18025,2,14-16,Ulanowska,Warszawa,Poland,0,0,,0,0,0,0,0,0,0,,
2205,Aviva,Airly,52.24351,21.08397,2,,Garibaldiego 4,Warszawa,Poland,0,0,,0,0,0,0,0,0,0,,
2206,Rybnik,Airly,50.07462,18.46501,1,SP 23,Sportowa 52,"Rybnik, Niewiadom",Poland,0,0,,0,0,0,0,0,0,0,,
2208,Tychy,Airly,50.1092,18.96168,2,102,Myśliwska,Tychy,Poland,0,0,,0,0,0,0,0,0,0,,
2209,Aviva,Airly,52.53326,19.70499,2,8,Norbertańska,Płock,Poland,0,0,,0,0,0,0,0,0,0,,
2211,Rybnik,Airly,50.04867,18.6059,1,ZSP 8,J. Lompy 6,"Rybnik, Boguszowice Osiedle",Poland,0,0,,0,0,0,0,0,0,0,,
2212,Deltafan,Airly,49.96225,19.63275,2,,,Brzeźnica,Poland,0,0,,0,0,0,0,0,0,0,,
2213,Mysłowice,Airly,50.22614,19.14419,1,6,Park Słupna,Mysłowice,Poland,0,0,,0,0,0,0,0,0,0,,
2214,Aviva,Airly,52.24012,21.10284,3,,Komorska 48A lok 1,Warszawa,Poland,0,0,,0,0,0,0,0,0,0,,
2215,Aviva,Airly,51.36926,19.37632,2,,Piłsudskiego 15,Bełchatów,Poland,0,0,,0,0,0,0,0,0,0,,
2218,Tychy,Airly,50.14296,18.95013,2,18,Leśna,Tychy,Poland,0,0,,0,0,0,0,0,0,0,,
2220,Łomianki,Airly,52.32394,20.91622,2,6,Tadeusza Kościuszki,Łomianki,Poland,0,0,,0,0,0,0,0,0,0,,
2224,Aviva,Airly,51.40937,21.16855,2,,Sportowa 8,Radom,Poland,0,0,,0,0,0,0,0,0,0,,
2225,Aviva,Airly,53.74076,20.4894,1,,Jarocka 59,Olsztyn,Poland,0,0,,0,0,0,0,0,0,0,,
2226,Aviva,Airly,50.3488,18.90843,1,,Wrocławska 32/34,Bytom,Poland,0,0,,0,0,0,0,0,0,0,,
2227,Aviva,Airly,50.30429,19.03329,1,5,1 Maja,Siemianowice Śląskie,Poland,0,0,,0,0,0,0,0,0,0,,
2228,Tomaszów Mazowiecki,Airly,51.52021,20.01131,2,,Bursztynowa,Tomaszów Mazowiecki,Poland,0,0,,0,0,0,0,0,0,0,,
2229,Przedsiębiorstwo Energetyki Cieplnej w Płońsku,Airly,52.6196,20.38218,2,4,Adama Mickiewicza,Płońsk,Poland,0,0,,0,0,0,0,0,0,0,,
2232,Tomaszów Mazowiecki,Airly,51.52534,20.01562,2,49/51,Świętego Antoniego,Tomaszów Mazowiecki,Poland,0,0,,0,0,0,0,0,0,0,,
2233,Tomaszów Mazowiecki,Airly,51.52543,19.99843,2,11,Ciepła,Tomaszów Mazowiecki,Poland,0,0,,0,0,0,0,0,0,0,,
2235,Mirzec,Airly,51.13742,21.05658,2,10,Mirzec Stary,Mirzec,Poland,0,0,,0,0,0,0,0,0,0,,
2238,Myślenice,Airly,49.83241,19.91692,1,56A,3 Maja,Myślenice,Poland,0,0,,0,0,0,0,0,0,0,,
2239,Tomaszów Mazowiecki,Airly,51.5189,20.01396,2,90/134,Wierzbowa,Tomaszów Mazowiecki,Poland,0,0,,0,0,0,0,0,0,0,,
2240,Aviva,Airly,53.25475,19.40611,1,,700 - lecia 2,Brodnica,Poland,0,0,,0,0,0,0,0,0,0,,
2241,Rabka-Zdrój,Airly,49.60862,19.96613,2,51,Władysława Orkana,Rabka-Zdrój,Poland,0,0,,0,0,0,0,0,0,0,,
2243,Rybnik,Airly,50.12271,18.55005,1,ZSP 1,Gliwicka 105,"Rybnik, Wielopole",Poland,0,0,,0,0,0,0,0,0,0,,
2244,Łomianki,Airly,52.33424,20.90905,2,2a,Brukowa,Łomianki,Poland,0,0,,0,0,0,0,0,0,0,,
2246,Wilamowice,Airly,49.91625,19.15265,2,1A,Rynek,Wilamowice,Poland,0,0,,0,0,0,0,0,0,0,,
2247,Jaworzno,Airly,50.20278,19.24653,1,66,Stanisława Moniuszki,Jaworzno,Poland,0,0,,0,0,0,0,0,0,0,,
2249,Aviva,Airly,50.2619,19.01716,0,,Słowackiego 13,Katowice,Poland,0,0,,0,0,0,0,0,0,0,,
2250,Rybnik,Airly,50.10186,18.49254,2,ZSP 12,M. Buhla 3,"Rybnik, Zebrzydowice",Poland,0,0,,0,0,0,0,0,0,0,,
2251,Manor House,Airly,51.24716,20.75798,2,43,Czachowskiego,Chlewiska,Poland,0,0,,0,0,0,0,0,0,0,,
2252,Aviva,Airly,50.93644,21.38966,2,,Mikołaja Reja 11/II,Ostrowiec Świętokrzyski,Poland,0,0,,0,0,0,0,0,0,0,,
2255,Serock (gmina),Airly,52.51449,21.06897,2,35,Pułtuska,Serock,Poland,0,0,,0,0,0,0,0,0,0,,
2257,Jaworzno,Airly,50.17959,19.2536,2,37-39,Sulińskiego,Jaworzno,Poland,0,0,,0,0,0,0,0,0,0,,
2259,Aviva,Airly,51.59286,19.13098,2,,Słowackiego 14,Łask,Poland,0,0,,0,0,0,0,0,0,0,,
2260,Aviva,Airly,51.75807,19.45572,2,,Kościuszki 103/105,Łódź,Poland,0,0,,0,0,0,0,0,0,0,,
2261,Jaworzno,Airly,50.20305,19.20719,1,65,Promienna,Jaworzno,Poland,0,0,,0,0,0,0,0,0,0,,
2262,Rabka-Zdrój,Airly,49.60167,19.97068,2,7,Dietla,Rabka-Zdrój,Poland,0,0,,0,0,0,0,0,0,0,,
2263,Zembrzyce (gmina),Airly,49.77373,19.60087,1,,,Zembrzyce,Poland,0,0,,0,0,0,0,0,0,0,,
2264,Aviva,Airly,50.86915,20.63536,2,,Św Leonarda 1/31,Kielce,Poland,0,0,,0,0,0,0,0,0,0,,
2265,Aviva,Airly,52.59707,21.44794,2,,Pułtuska 27,Wyszków,Poland,0,0,,0,0,0,0,0,0,0,,
2266,Brzeszcze (gmina),Airly,49.98716,19.18783,1,19,,Wilczkowice,Poland,0,0,,0,0,0,0,0,0,0,,
2268,Mysłowice,Airly,50.24596,19.11419,1,32,Bończyka,Mysłowice,Poland,0,0,,0,0,0,0,0,0,0,,
2269,Rybnik,Airly,50.15413,18.47729,2,OSP,Zwonowicka 5,"Rybnik, Stodoły",Poland,0,0,,0,0,0,0,0,0,0,,
2270,Aviva,Airly,50.56369,21.16659,1,,Rynek 17,Staszów,Poland,0,0,,0,0,0,0,0,0,0,,
2271,Aviva,Airly,50.08657,19.97482,2,36,Lublańska,Kraków,Poland,0,0,,0,0,0,0,0,0,0,,
2272,Rabka-Zdrój,Airly,49.60474,19.9674,2,2,Profesora Rudnika,Rabka-Zdrój,Poland,0,0,,0,0,0,0,0,0,0,,
2273,Rybnik,Airly,50.05456,18.52505,1,SP 24,Kręta 20,"Rybnik, Radziejów",Poland,0,0,,0,0,0,0,0,0,0,,
2274,Zabierzów,Airly,50.08652,19.79114,2,1,Radziwiłłów,Balice,Poland,0,0,,0,0,0,0,0,0,0,,
2275,Jaworzno,Airly,50.19553,19.25936,2,16,Azot,Jaworzno,Poland,0,0,,0,0,0,0,0,0,0,,
2276,Aviva,Airly,51.73953,19.46562,2,,Niepodległości 4,Łódź,Poland,0,0,,0,0,0,0,0,0,0,,
2277,Aviva,Airly,50.05654,19.95423,2,,Prochowa 1,Kraków,Poland,0,0,,0,0,0,0,0,0,0,,
2280,Aviva,Airly,53.47235,18.74504,2,,Chełmińska 115,Grudziądz,Poland,0,0,,0,0,0,0,0,0,0,,
2281,Łomianki,Airly,52.31942,20.88308,2,31,Partyzantów,Łomianki,Poland,0,0,,0,0,0,0,0,0,0,,
2283,Przedsiębiorstwo Energetyki Cieplnej w Płońsku,Airly,52.63131,20.35173,2,23,Jana Pawła II,Płońsk,Poland,0,0,,0,0,0,0,0,0,0,,
2285,Wilamowice,Airly,49.93293,19.10338,0,4,Szkolna,Dankowice,Poland,0,0,,0,0,0,0,0,0,0,,
2286,Jaworzno,Airly,50.18276,19.28676,1,7A,Juliana Ursyna Niemcewicza,Jaworzno,Poland,0,0,,0,0,0,0,0,0,0,,
2287,Aviva,Airly,52.6284,20.36703,0,,Kopernika 24/1,Płońsk,Poland,0,0,,0,0,0,0,0,0,0,,
2289,Aviva,Airly,51.35636,19.38465,2,,Berylowa 1,Bełchatów,Poland,0,0,,0,0,0,0,0,0,0,,
2290,Jaworzno,Airly,50.16474,19.23965,2,30,Zwycięstwa,Jaworzno,Poland,0,0,,0,0,0,0,0,0,0,,
2292,Aviva,Airly,51.7702,19.45064,2,,Zielona 15,Łódź,Poland,0,0,,0,0,0,0,0,0,0,,
2293,Brzesko,Airly,49.97299,20.62926,1,,Wincentego Zydronia,Brzesko,Poland,0,0,,0,0,0,0,0,0,0,,
2294,Tomaszów Mazowiecki,Airly,51.53802,20.03578,2,60,Żeromskiego,Tomaszów Mazowiecki,Poland,0,0,,0,0,0,0,0,0,0,,
2296,Tomaszów Mazowiecki,Airly,51.5341,20.01252,2,13,Konstytucji 3 Maja,Tomaszów Mazowiecki,Poland,0,0,,0,0,0,0,0,0,0,,
2297,Rybnik,Airly,50.07514,18.61594,1,P 22,Gotartowicka 24,"Rybnik, Gotartowice",Poland,0,0,,0,0,0,0,0,0,0,,
2298,Aviva,Airly,49.692,19.19918,3,,Żeromskiego 6,Żywiec,Poland,0,0,,0,0,0,0,0,0,0,,
2300,Przedsiębiorstwo Energetyki Cieplnej w Płońsku,Airly,52.63538,20.36934,2,15B,Północna,Płońsk,Poland,0,0,,0,0,0,0,0,0,0,,
2301,Rybnik,Airly,50.12474,18.52568,2,ZSP 13,Św. Maksymiliana 26,"Rybnik, Rybnicka Kuźnia",Poland,0,0,,0,0,0,0,0,0,0,,
2303,Rybnik,Airly,50.10303,18.55149,2,ZSP 5,dr. M. Różańskiego 14a,"Rybnik, Rybnik-Północ",Poland,0,0,,0,0,0,0,0,0,0,,
2304,Myszków,Airly,50.5993,19.30268,1,2,Wapienna,Myszków,Poland,0,0,,0,0,0,0,0,0,0,,
2305,Jaworzno,Airly,50.19171,19.2682,1,76,Karola Olszewskiego,Jaworzno,Poland,0,0,,0,0,0,0,0,0,0,,
2306,Mogilany,Airly,49.9604,19.89999,1,73,Parkowa,Gaj,Poland,0,0,,0,0,0,0,0,0,0,,
2308,Myszków,Airly,50.57455,19.35553,1,34,Jaworznicka,Myszków,Poland,0,0,,0,0,0,0,0,0,0,,
2309,Aviva,Airly,50.03109,19.94009,2,,Wadowicka 8a,Kraków,Poland,0,0,,0,0,0,0,0,0,0,,
2310,Aviva,Airly,51.81982,19.30315,2,1,Plac Kościuszki,Aleksandrów Łódzki,Poland,0,0,,0,0,0,0,0,0,0,,
2311,Jaworzno,Airly,50.1621,19.30741,2,12,Na Stoku,Jaworzno,Poland,0,0,,0,0,0,0,0,0,0,,
2312,Rybnik,Airly,50.13972,18.6034,1,SP 28,A. Szewczyka 6,"Rybnik, Kamień",Poland,0,0,,0,0,0,0,0,0,0,,
2313,Gmina Świerklaniec,Airly,50.4312,18.95259,1,,"Parkowa 30, Pałac Kawalera",Świerklaniec,Poland,0,0,,0,0,0,0,0,0,0,,
2315,Tychy,Airly,50.12468,19.02101,2,52,Cmentarna,Tychy,Poland,0,0,,0,0,0,0,0,0,0,,
2316,Aviva,Airly,50.05026,21.40908,1,,Rynek 32,Dębica,Poland,0,0,,0,0,0,0,0,0,0,,
2318,Aviva,Airly,51.75483,19.45927,0,,Piotrkowska 207,Łódź,Poland,0,0,,0,0,0,0,0,0,0,,
2319,Myszków,Airly,50.54086,19.36752,4,41,Traugutta,Myszków,Poland,0,0,,0,0,0,0,0,0,0,,
2321,Aviva,Airly,52.22941,20.98209,3,,Prosta 69,Warszawa,Poland,0,0,,0,0,0,0,0,0,0,,
2322,Aviva,Airly,49.48255,20.0312,1,,Rynek 11,Nowy Targ,Poland,0,0,,0,0,0,0,0,0,0,,
2323,Maków Podhalański,Airly,49.72364,19.69178,2,1,Głowackiego,Maków Podhalański,Poland,0,0,,0,0,0,0,0,0,0,,
2324,Rybnik,Airly,50.06112,18.59927,1,ZSP 6,S. Małachowskiego 44,"Rybnik, Boguszowice Stare",Poland,0,0,,0,0,0,0,0,0,0,,
2325,Aviva,Airly,52.22613,20.95962,2,,Bema 60A,Warszawa,Poland,0,0,,0,0,0,0,0,0,0,,
2327,Aviva,Airly,50.57353,21.67164,1,,Plac Głowackiego 40A,Tarnobrzeg,Poland,0,0,,0,0,0,0,0,0,0,,
2328,Rybnik,Airly,50.08981,18.57886,1,SP 4,K. Miarki 74,"Rybnik, Ligota-Ligocka Kuźnia",Poland,0,0,,0,0,0,0,0,0,0,,
2329,Rybnik,Airly,50.07033,18.50102,2,SP 21,Niedobczycka 191,"Rybnik, Niedobczyce",Poland,0,0,,0,0,0,0,0,0,0,,
2330,Aviva,Airly,52.2256,20.95177,3,12A,Juliana Konstantego Ordona,Warszawa,Poland,0,0,,0,0,0,0,0,0,0,,
2331,Rybnik,Airly,50.11097,18.51607,1,ZSP 7,Borki 37D,"Rybnik, Orzepowice",Poland,0,0,,0,0,0,0,0,0,0,,
2333,Rybnik,Airly,50.08386,18.5537,1,ZSB,Świerklańska 42,"Rybnik, Meksyk",Poland,0,0,,0,0,0,0,0,0,0,,
2334,Aviva,Airly,52.65225,19.06777,2,,Chopina 69,Włocławek,Poland,0,0,,0,0,0,0,0,0,0,,
2335,Tomaszów Mazowiecki,Airly,51.52127,20.02065,2,1,Mazowiecka,Tomaszów Mazowiecki,Poland,0,0,,0,0,0,0,0,0,0,,
2337,Serock (gmina),Airly,52.47581,21.03049,2,1-7,Lipowa,Borowa Góra,Poland,0,0,,0,0,0,0,0,0,0,,
2339,Aviva,Airly,50.08289,19.95347,1,,Wileńska 4,Kraków,Poland,0,0,,0,0,0,0,0,0,0,,
2340,Aviva,Airly,52.09182,21.02691,2,,Topazowa,Piaseczno,Poland,0,0,,0,0,0,0,0,0,0,,
2341,Rybnik,Airly,50.05386,18.51257,1,ZSP 14,L.Staffa 42a,"Rybnik, Popielów",Poland,0,0,,0,0,0,0,0,0,0,,
2346,Aviva,Airly,51.40499,21.13344,2,,Okulickiego 39,Radom,Poland,0,0,,0,0,0,0,0,0,0,,
2347,Aviva,Airly,51.75136,18.07688,2,,Górnośląska 56,Kalisz,Poland,0,0,,0,0,0,0,0,0,0,,
2348,Rybnik,Airly,50.05483,18.62631,2,SP 19,Włościańska 39e,"Rybnik, Kłokocin",Poland,0,0,,0,0,0,0,0,0,0,,
2349,Myszków,Airly,50.54916,19.29167,1,,Pińczycka,Myszków,Poland,0,0,,0,0,0,0,0,0,0,,
2350,Aviva,Airly,52.25445,20.98454,2,,Jana Pawła II 80,Warszawa,Poland,0,0,,0,0,0,0,0,0,0,,
2351,Aviva,Airly,50.27488,19.13312,2,,Modrzejowska 38,Sosnowiec,Poland,0,0,,0,0,0,0,0,0,0,,
2352,Brzeszcze (gmina),Airly,49.96976,19.13362,2,1,Narutowicza,Brzeszcze,Poland,0,0,,0,0,0,0,0,0,0,,
2354,Myszków,Airly,50.56734,19.34305,0,91B,Jedwabna,Myszków,Poland,0,0,,0,0,0,0,0,0,0,,
2355,Aviva,Airly,50.56812,21.66946,1,,Mickiewicza 34A,"Tarnobrzeg ",Poland,0,0,,0,0,0,0,0,0,0,,
2356,Aviva,Airly,50.68937,21.73016,2,,Westerplatte 4A,Sandomierz,Poland,0,0,,0,0,0,0,0,0,0,,
2357,Aviva,Airly,50.10885,19.19909,1,,Zapłocie 7,Chełm Śląski,Poland,0,0,,0,0,0,0,0,0,0,,
2358,Rabka-Zdrój,Airly,49.61347,19.96359,1,42,Na Banię,Rabka-Zdrój,Poland,0,0,,0,0,0,0,0,0,0,,
2359,Rybnik,Airly,50.14067,18.52337,1,OSP,W. Poloczka 76c,"Rybnik, Grabownia",Poland,0,0,,0,0,0,0,0,0,0,,
2360,Aviva,Airly,50.33781,18.19912,2,,Piotra Skargi 21,Kędzierzyn-Koźle,Poland,0,0,,0,0,0,0,0,0,0,,
2361,Tomaszów Mazowiecki,Airly,51.53957,20.01143,2,58/60,Warszawska,Tomaszów Mazowiecki,Poland,0,0,,0,0,0,0,0,0,0,,
2363,Aviva,Airly,52.24847,21.19443,2,55,Wspólna,Warszawa,Poland,0,0,,0,0,0,0,0,0,0,,
2364,PolskaOddycha,Airly,50.06156,19.92849,2,3,plac Sikorskiego,Kraków,Poland,0,0,,0,0,0,0,0,0,0,,
2365,Gdów,Airly,49.90107,20.14058,1,169,Szkoła Podstawowa w Winiarach,Winiary,Poland,0,0,,0,0,0,0,0,0,0,,
2366,Gdów,Airly,49.93766,20.24085,1,,Szkoła Podstawowa w Niegowici,Niegowić,Poland,0,0,,0,0,0,0,0,0,0,,
2367,Olsztyn,Airly,53.74383,20.49532,1,,Juliusza Malewskiego,Olsztyn,Poland,0,0,,0,0,0,0,0,0,0,,
2368,Celsium,Airly,51.11862,20.89944,2,101,1 Maja,Skarżysko-Kamienna,Poland,0,0,,0,0,0,0,0,0,0,,
2370,Olsztyn,Airly,53.78595,20.45634,2,42,Przyjaciół 42,Olsztyn,Poland,0,0,,0,0,0,0,0,0,0,,
2372,Olsztyn,Airly,53.77884,20.47853,2,,Wyzwolenia 30,Olsztyn,Poland,0,0,,0,0,0,0,0,0,0,,
2373,Gdów,Airly,49.94992,20.30064,1,,Szkoła Podstawowa w Książnicach,Książnice,Poland,0,0,,0,0,0,0,0,0,0,,
2374,Fundacja Wspierania Pracowników Drogownictwa,Airly,52.24498,21.21126,2,11A,Adama Mickiewicza,Warszawa,Poland,0,0,,0,0,0,0,0,0,0,,
2375,Olsztyn,Airly,53.75956,20.45737,1,11,Prawocheńskiego 11,Olsztyn,Poland,0,0,,0,0,0,0,0,0,0,,
2376,Olsztyn,Airly,53.79107,20.51442,2,,Morwowa 1,Olsztyn,Poland,0,0,,0,0,0,0,0,0,0,,
2379,Częstochowa,Airly,50.80391,19.10387,2,35,Juliusza Słowackiego,Częstochowa,Poland,0,0,,0,0,0,0,0,0,0,,
2380,Urząd Miasta Mikołów,Airly,50.22349,18.81763,2,297,Gliwicka,Mikołów,Poland,0,0,,0,0,0,0,0,0,0,,
2382,Gmina Lubomia,Airly,50.02343,18.33835,1,65,3 Maja,Syrynia,Poland,0,0,,0,0,0,0,0,0,0,,
2383,Siepraw (gmina),Airly,49.90837,19.96687,1,118,Jana Pawła II,Siepraw,Poland,0,0,,0,0,0,0,0,0,0,,
2384,Rzgów,Airly,51.62823,19.44592,2,,Prawda,Prawda,Poland,0,0,,0,0,0,0,0,0,0,,
2385,Tymbark (gmina),Airly,49.7238,20.32374,1,,,Tymbark,Poland,0,0,,0,0,0,0,0,0,0,,
2386,Niepołomice,Airly,50.05037,20.27144,1,,,Wola Batorska,Poland,0,0,,0,0,0,0,0,0,0,,
2388,Olsztyn,Airly,53.74738,20.47289,1,,Dubiskiego 43,Olsztyn,Poland,0,0,,0,0,0,0,0,0,0,,
2389,Olsztyn,Airly,53.76513,20.42908,2,,Żytnia 71,Olsztyn,Poland,0,0,,0,0,0,0,0,0,0,,
2390,Powiat mikołowski,Airly,50.14638,18.77896,1,21,Świętego Wawrzyńca,Orzesze,Poland,0,0,,0,0,0,0,0,0,0,,
2391,Zator,Airly,49.99426,19.4322,2,15,Słowackiego,Zator,Poland,0,0,,0,0,0,0,0,0,0,,
2393,Częstochowa,Airly,50.81608,19.10955,2,18,Partyzantów,Częstochowa,Poland,0,0,,0,0,0,0,0,0,0,,
2395,KrakówOddycha,Airly,50.01801,19.98393,2,14,Na Kozłówce,Kraków,Poland,0,0,,0,0,0,0,0,0,0,,
2397,Morawica (gmina),Airly,50.78831,20.61905,1,5-9,Szkolna,Bilcza,Poland,0,0,,0,0,0,0,0,0,0,,
2399,Rzgów,Airly,51.65146,19.54865,2,,,Kalinko,Poland,0,0,,0,0,0,0,0,0,0,,
2400,Tomaszów Mazowiecki,Airly,51.53725,20.01509,2,29,Niemcewicza,Tomaszów Mazowiecki,Poland,0,0,,0,0,0,0,0,0,0,,
2401,Częstochowa,Airly,50.79251,19.13274,1,28/30,Szczytowa,Częstochowa,Poland,0,0,,0,0,0,0,0,0,0,,
2403,Zator,Airly,49.94663,19.44984,2,,,Graboszyce,Poland,0,0,,0,0,0,0,0,0,0,,
2404,Starachowice,Airly,51.05124,21.08481,2,10,Graniczna,Starachowice,Poland,0,0,,0,0,0,0,0,0,0,,
2405,Aviva,Airly,50.23314,19.16625,1,27,Zawodzie,Sosnowiec,Poland,0,0,,0,0,0,0,0,0,0,,
2407,Gdów,Airly,49.89607,20.26962,2,4,Szkoła Podstawowa w Jaroszówce,Jaroszówka,Poland,0,0,,0,0,0,0,0,0,0,,
2408,Częstochowa,Airly,50.78764,19.14732,1,40,Adama Próchnika,Częstochowa,Poland,0,0,,0,0,0,0,0,0,0,,
2409,Przedsiębiorstwo Energetyki Cieplnej w Płońsku,Airly,52.60679,20.36128,2,21,Wyszogrodzka,Płońsk,Poland,0,0,,0,0,0,0,0,0,0,,
2410,PolskaOddycha,Airly,50.15092,19.74555,1,,Leśna,,Poland,0,0,,0,0,0,0,0,0,0,,
2412,Urząd Miasta Mikołów,Airly,50.18439,18.80008,0,1,Szkolna,Mikołów,Poland,0,0,,0,0,0,0,0,0,0,,
2413,Częstochowa,Airly,50.77844,19.15481,1,5/9,Marii Dąbrowskiej,Częstochowa,Poland,0,0,,0,0,0,0,0,0,0,,
2414,Częstochowa,Airly,50.83591,19.15755,2,7,Bronisława Hubermana,Częstochowa,Poland,0,0,,0,0,0,0,0,0,0,,
2415,Bukowno,Airly,50.26947,19.4536,1,1,Górnicza,Bukowno,Poland,0,0,,0,0,0,0,0,0,0,,
2416,Urząd Miasta Mikołów,Airly,50.18154,18.89071,2,10,Skalna,Mikołów,Poland,0,0,,0,0,0,0,0,0,0,,
2417,Koźminek,Airly,51.79641,18.34435,2,9,Mielęckiego,Koźminek,Poland,0,0,,0,0,0,0,0,0,0,,
2418,Częstochowa,Airly,50.81049,19.10506,1,62,Jerzego Waszyngtona,Częstochowa,Poland,0,0,,0,0,0,0,0,0,0,,
2419,Siepraw (gmina),Airly,49.90496,19.99622,1,30,Kawęciny,Siepraw,Poland,0,0,,0,0,0,0,0,0,0,,
2421,Częstochowa,Airly,50.79214,19.02539,0,24,Festynowa,Częstochowa,Poland,0,0,,0,0,0,0,0,0,0,,
2422,PolskaOddycha,Airly,50.29556,18.64698,2,17,Ułańska,Gliwice,Poland,0,0,,0,0,0,0,0,0,0,,
2423,Borzęcin (gmina),Airly,50.03328,20.66173,1,,,Przyborów,Poland,0,0,,0,0,0,0,0,0,0,,
2425,Częstochowa,Airly,50.76197,19.06242,1,144A,Powstańców Warszawy,Częstochowa,Poland,0,0,,0,0,0,0,0,0,0,,
2426,Aviva,Airly,50.192,20.29551,2,61,3 Maja,Proszowice,Poland,0,0,,0,0,0,0,0,0,0,,
2427,Stryszów (gmina),Airly,49.82252,19.62059,1,,,Stryszów,Poland,0,0,,0,0,0,0,0,0,0,,
2428,Aviva,Airly,52.25709,20.58665,2,20,aleja Wojska Polskiego,Leszno,Poland,0,0,,0,0,0,0,0,0,0,,
2429,Tomaszów Mazowiecki,Airly,51.52312,20.00918,2,43,Graniczna,Tomaszów Mazowiecki,Poland,0,0,,0,0,0,0,0,0,0,,
2432,Rzgów,Airly,51.64098,19.45763,2,,,Guzew,Poland,0,0,,0,0,0,0,0,0,0,,
2433,Częstochowa,Airly,50.80519,19.12459,1,50/64,Ogrodowa,Częstochowa,Poland,0,0,,0,0,0,0,0,0,0,,
2434,Częstochowa,Airly,50.80157,19.07035,1,8,Szamotowa,Częstochowa,Poland,0,0,,0,0,0,0,0,0,0,,
2435,Częstochowa,Airly,50.75299,19.09862,1,8A,Wirażowa,Częstochowa,Poland,0,0,,0,0,0,0,0,0,0,,
2436,Skała,Airly,50.17956,19.86026,2,,,Maszyce,Poland,0,0,,0,0,0,0,0,0,0,,
2437,Aviva,Airly,51.22565,18.5662,0,2,Głowackiego,Wieluń,Poland,0,0,,0,0,0,0,0,0,0,,
2438,Michałowice,Airly,50.11767,20.03367,2,,,Raciborowice,Poland,0,0,,0,0,0,0,0,0,0,,
2439,Powiat chrzanowski,Airly,50.15033,19.52098,1,65,Paderewskiego,Dulowa,Poland,0,0,,0,0,0,0,0,0,0,,
2440,Wieliczka,Airly,49.98842,20.05878,2,20,Marszałka Józefa Piłsudskiego,Wieliczka,Poland,0,0,,0,0,0,0,0,0,0,,
2441,Częstochowa,Airly,50.80543,19.15128,1,58,Legionów,Częstochowa,Poland,0,0,,0,0,0,0,0,0,0,,
2443,Częstochowa,Airly,50.84328,19.10798,2,58,Ludowa,Częstochowa,Poland,0,0,,0,0,0,0,0,0,0,,
2444,Brzeszcze (gmina),Airly,49.97829,19.17996,1,54A,Wyzwolenia,Przecieszyn,Poland,0,0,,0,0,0,0,0,0,0,,
2447,Częstochowa,Airly,50.81859,19.09946,2,58-62,Generała Władysława Sikorskiego,Częstochowa,Poland,0,0,,0,0,0,0,0,0,0,,
2448,Tomaszów Mazowiecki,Airly,51.5154,20.02496,2,30A,Wodna,Tomaszów Mazowiecki,Poland,0,0,,0,0,0,0,0,0,0,,
2449,Aviva,Airly,51.58847,18.72283,2,52,Jana Pawła II,Sieradz,Poland,0,0,,0,0,0,0,0,0,0,,
2450,Gmina Ornontowice,Airly,50.17075,18.77564,1,4,Akacjowa,Ornontowice,Poland,0,0,,0,0,0,0,0,0,0,,
2451,Aviva,Airly,50.18763,18.85524,2,9/I,Botaniczna,Mikołów,Poland,0,0,,0,0,0,0,0,0,0,,
2453,Gorlice,Airly,49.65331,21.15958,1,9,"Piękna, Miejski Zespół Szkół nr 1",Gorlice,Poland,0,0,,0,0,0,0,0,0,0,,
2454,Siepraw (gmina),Airly,49.90145,20.01981,1,,,Czechówka,Poland,0,0,,0,0,0,0,0,0,0,,
2455,Gdów,Airly,49.94673,20.21383,1,164,Szkoła Podstawowa w Wiatowicach,Wiatowice,Poland,0,0,,0,0,0,0,0,0,0,,
2456,Częstochowa,Airly,50.83246,19.06572,2,221,Św. Rocha,Częstochowa,Poland,0,0,,0,0,0,0,0,0,0,,
2457,Częstochowa,Airly,50.76734,19.14878,1,1,Szkolna,Częstochowa,Poland,0,0,,0,0,0,0,0,0,0,,
2458,Ostrołęka,Airly,53.05633,21.6168,2,4,plac Dworcowy,Ostrołęka,Poland,0,0,,0,0,0,0,0,0,0,,
2459,Olsztyn,Airly,53.78985,20.44153,2,,Bałtycka 43,Olsztyn,Poland,0,0,,0,0,0,0,0,0,0,,
2460,Olsztyn,Airly,53.72661,20.47646,2,,Złota 11,Olsztyn,Poland,0,0,,0,0,0,0,0,0,0,,
2461,Powiat chrzanowski,Airly,50.13683,19.39731,1,7,Grzybowskiego,Chrzanów,Poland,0,0,,0,0,0,0,0,0,0,,
2462,Powiat chrzanowski,Airly,50.06053,19.29119,2,1,Traugutta,Gromiec,Poland,0,0,,0,0,0,0,0,0,0,,
2463,Szkoła i Przedszkole Słoneczna Polana,Airly,52.34995,21.20932,2,3,"Brzechwy 5, Szkoła i Przedszkole Słoneczna Polana",Kobyłka,Poland,0,0,,0,0,0,0,0,0,0,,
2464,Zawiercie,Airly,50.5082,19.41438,1,55,Oświatowa,Zawiercie,Poland,0,0,,0,0,0,0,0,0,0,,
2465,Urząd Miasta Mikołów,Airly,50.20809,18.82143,2,30,Wolności,Mikołów,Poland,0,0,,0,0,0,0,0,0,0,,
2466,Powiat chrzanowski,Airly,50.15181,19.48976,1,1,Kamieniec,Młoszowa,Poland,0,0,,0,0,0,0,0,0,0,,
2467,Wieliczka,Airly,49.97013,20.01222,1,,,Sygneczów,Poland,0,0,,0,0,0,0,0,0,0,,
2468,Gmina Ornontowice,Airly,50.198,18.74561,2,6,Okrężna,Ornontowice,Poland,0,0,,0,0,0,0,0,0,0,,
2469,Rzgów,Airly,51.67424,19.52017,2,,,Grodzisko,Poland,0,0,,0,0,0,0,0,0,0,,
2470,,Airly,50.30413,18.72525,2,117,Chorzowska,Gliwice,Poland,0,0,,0,0,0,0,0,0,0,,
2472,Sucha Beskidzka,Airly,49.74295,19.60067,2,13,Rynek,Sucha Beskidzka,Poland,0,0,,0,0,0,0,0,0,0,,
2473,Powiat mikołowski,Airly,50.10441,18.88238,1,366,Pszczyńska,Gostyń,Poland,0,0,,0,0,0,0,0,0,0,,
2475,Aviva,Airly,50.09423,19.23425,1,1,Wiśniowa,Chełmek,Poland,0,0,,0,0,0,0,0,0,0,,
2476,PolskaOddycha,Airly,50.28487,21.43389,2,11,Targowa,Mielec,Poland,0,0,,0,0,0,0,0,0,0,,
2478,Aviva,Airly,50.30059,19.38988,2,26,Wał,Sławków,Poland,0,0,,0,0,0,0,0,0,0,,
2479,Olsztyn,Airly,53.76628,20.49137,2,,Pstrowskiego 17A,Olsztyn,Poland,0,0,,0,0,0,0,0,0,0,,
2480,Radomsko,Airly,51.05857,19.40816,2,6,Wymysłowska,Radomsko,Poland,0,0,,0,0,0,0,0,0,0,,
2482,Gmina Trzebinia,Airly,50.17677,19.45018,1,53,24 Stycznia,Trzebinia,Poland,0,0,,0,0,0,0,0,0,0,,
2483,Aviva,Airly,52.63967,21.84678,2,3,Kościuszki,Sadowne,Poland,0,0,,0,0,0,0,0,0,0,,
2485,Aviva,Airly,50.31042,18.8536,1,15,Adama Mickiewicza,Ruda Śląska,Poland,0,0,,0,0,0,0,0,0,0,,
2486,PolskaOddycha,Airly,52.34664,20.88425,2,4,Michała Wołodyjowskiego,Łomianki,Poland,0,0,,0,0,0,0,0,0,0,,
2487,Powiat chrzanowski,Airly,50.11772,19.47878,0,30,Krakowska,Bolęcin,Poland,0,0,,0,0,0,0,0,0,0,,
2488,Rzgów,Airly,51.66247,19.55559,2,,,Kalino,Poland,0,0,,0,0,0,0,0,0,0,,
2489,Rzgów,Airly,51.64226,19.49498,2,136A,Katowicka,Rzgów,Poland,0,0,,0,0,0,0,0,0,0,,
2491,Olsztyn,Airly,53.74221,20.4724,1,26,Maczka 11,Olsztyn,Poland,0,0,,0,0,0,0,0,0,0,,
2492,Urząd Miasta Mikołów,Airly,50.16557,18.91022,2,30,Krakowska,Mikołów,Poland,0,0,,0,0,0,0,0,0,0,,
2494,Celsium,Airly,51.44652,20.46288,2,22,Braci Kobylańskich,Drzewica,Poland,0,0,,0,0,0,0,0,0,0,,
2495,Termo Organika Sp. z o.o.,Airly,50.2934,21.42767,1,11,"Drzewieckiego, SP-9",Mielec,Poland,0,0,,0,0,0,0,0,0,0,,
2496,Gdów,Airly,49.91733,20.23653,1,81,Szkoła Podstawowa w Marszowicach,Marszowice,Poland,0,0,,0,0,0,0,0,0,0,,
2497,Olsztyn,Airly,53.7656,20.48065,1,,Grzegorzewska 6,Olsztyn,Poland,0,0,,0,0,0,0,0,0,0,,
2498,Olsztyn,Airly,53.76036,20.50482,2,,Gdyńska 17,Olsztyn,Poland,0,0,,0,0,0,0,0,0,0,,
2500,Olsztyn,Airly,53.77553,20.50612,2,,Pana Tadeusza 12A,Olsztyn,Poland,0,0,,0,0,0,0,0,0,0,,
2501,Olsztyn,Airly,53.75273,20.49327,1,,Wańkowicza 4,Olsztyn,Poland,0,0,,0,0,0,0,0,0,0,,
2502,Jaworzno,Airly,50.23064,19.21395,2,9,Spółdzielcza,Jaworzno,Poland,0,0,,0,0,0,0,0,0,0,,
2504,Aviva,Airly,51.37619,20.28713,2,4,17 Stycznia,Opoczno,Poland,0,0,,0,0,0,0,0,0,0,,
2505,Częstochowa,Airly,50.81932,19.20447,1,5,Rozdolna,Częstochowa,Poland,0,0,,0,0,0,0,0,0,0,,
2506,Gdów,Airly,49.90377,20.20032,2,1206,Gimnazjum w Gdowie,Gdów,Poland,0,0,,0,0,0,0,0,0,0,,
2507,Powiat chrzanowski,Airly,50.20821,19.47248,1,8,Szkolna,Czyżówka,Poland,0,0,,0,0,0,0,0,0,0,,
2508,Urząd Miasta Mikołów,Airly,50.17687,18.8539,2,1,Zamkowa,Mikołów,Poland,0,0,,0,0,0,0,0,0,0,,
2509,Rzgów,Airly,51.69005,19.52913,2,,,Bronisin Dworski,Poland,0,0,,0,0,0,0,0,0,0,,
2510,Olsztyn,Airly,53.74032,20.51162,2,,Panasa 12,Olsztyn,Poland,0,0,,0,0,0,0,0,0,0,,
2513,Zielonki,Airly,50.11776,19.92077,2,116,Krakowskie Przedmieście,Zielonki,Poland,0,0,,0,0,0,0,0,0,0,,
2514,Celsium,Airly,51.10292,20.85885,2,107,Legionów,Skarżysko-Kamienna,Poland,0,0,,0,0,0,0,0,0,0,,
2515,Celsium,Airly,51.11824,20.88465,2,100,Aleja Niepodległości,Skarżysko-Kamienna,Poland,0,0,,0,0,0,0,0,0,0,,
2516,Celsium,Airly,51.10657,20.87949,2,,11 Listopada,Skarżysko-Kamienna,Poland,0,0,,0,0,0,0,0,0,0,,
2517,Stacja Narciarska Długa Polana,Airly,49.50042,20.06604,1,102,Kokoszków,Nowy Targ,Poland,0,0,,0,0,0,0,0,0,0,,
2518,Zawiercie,Airly,50.49401,19.4277,1,48,Wierzbowa,Zawiercie,Poland,0,0,,0,0,0,0,0,0,0,,
2521,Częstochowa,Airly,50.81404,19.13637,2,1,Żabia,Częstochowa,Poland,0,0,,0,0,0,0,0,0,0,,
2522,Olsztyn,Airly,53.80357,20.44252,2,,Stokrotki 1,Olsztyn,Poland,0,0,,0,0,0,0,0,0,0,,
2523,Lidzbark,Airly,53.26083,19.81718,2,19,Akacjowa,Lidzbark,Poland,0,0,,0,0,0,0,0,0,0,,
2525,WarszawaOddycha,Airly,52.23689,20.99439,3,1,Krochmalna,Warszawa,Poland,0,0,,0,0,0,0,0,0,0,,
2526,Olsztyn,Airly,53.77545,20.4699,1,,Grunwaldzka 21A,Olsztyn,Poland,0,0,,0,0,0,0,0,0,0,,
2527,Gdów,Airly,49.89188,20.22211,1,,Szkoła Podstawowa w Zręczycach,Zręczyce,Poland,0,0,,0,0,0,0,0,0,0,,
2529,Olsztyn,Airly,53.7474,20.44521,2,46,Słoneczna 46,Olsztyn,Poland,0,0,,0,0,0,0,0,0,0,,
2530,Rzgów,Airly,51.66176,19.44645,2,47,Gospodarz,Gospodarz,Poland,0,0,,0,0,0,0,0,0,0,,
2531,Zawiercie,Airly,50.49224,19.44177,1,1,Piłsudskiego,Zawiercie,Poland,0,0,,0,0,0,0,0,0,0,,
2532,Olsztyn,Airly,53.78949,20.48599,2,,Puszkina 16,Olsztyn,Poland,0,0,,0,0,0,0,0,0,0,,
2536,Powiat mikołowski,Airly,50.18331,18.7623,1,26A,Zwycięstwa,Ornontowice,Poland,0,0,,0,0,0,0,0,0,0,,
2538,Gmina Wyry,Airly,50.12991,18.90361,1,10,Puszkina,Wyry,Poland,0,0,,0,0,0,0,0,0,0,,
2540,Rzgów,Airly,51.66299,19.49193,2,22-23,plac 500-lecia,Rzgów,Poland,0,0,,0,0,0,0,0,0,0,,
2541,Lubień,Airly,49.70908,19.9684,5,,,Lubień,Poland,0,0,,0,0,0,0,0,0,0,,
2543,Gmina Tarnów,Airly,49.97723,20.90284,1,39,Krakowska,Zgłobice,Poland,0,0,,0,0,0,0,0,0,0,,
2544,Olsztyn,Airly,53.80427,20.40065,2,,Bałtycka 151,Olsztyn,Poland,0,0,,0,0,0,0,0,0,0,,
2545,Gmina Kocmyrzów-Luborzyca,Airly,50.11683,20.11815,3,,,Dojazdów,Poland,0,0,,0,0,0,0,0,0,0,,
2546,Celsium,Airly,51.86118,20.86483,2,7,Sportowa,Grójec,Poland,0,0,,0,0,0,0,0,0,0,,
2547,Olsztyn,Airly,53.79165,20.49854,2,14,Ludwika Zamenhofa,Olsztyn,Poland,0,0,,0,0,0,0,0,0,0,,
2548,Olsztyn,Airly,53.78141,20.49572,2,,Kętrzyńskiego 10,Olsztyn,Poland,0,0,,0,0,0,0,0,0,0,,
2549,Celsium,Airly,51.07012,21.05884,1,43,Bugaj,Starachowice,Poland,0,0,,0,0,0,0,0,0,0,,
2550,Olsztyn,Airly,53.73709,20.49761,2,,Mroza 25,Olsztyn,Poland,0,0,,0,0,0,0,0,0,0,,
2551,Olsztyn,Airly,53.75911,20.47009,2,44,Iwaszkiewicza 44,Olsztyn,Poland,0,0,,0,0,0,0,0,0,0,,
2553,Gdów,Airly,49.97553,20.22716,1,,Szkoła Podstawowa w Szczytnikach,Szczytniki,Poland,0,0,,0,0,0,0,0,0,0,,
2554,Siepraw (gmina),Airly,49.92047,19.98711,1,114,Górska,Łyczanka,Poland,0,0,,0,0,0,0,0,0,0,,
2555,LEIER SA,Airly,50.03672,21.06504,1,,,Wola Rzędzińska,Poland,0,0,,0,0,0,0,0,0,0,,
2557,Częstochowa,Airly,50.79504,19.15737,1,46,Orla,Częstochowa,Poland,0,0,,0,0,0,0,0,0,0,,
2558,Gorlice,Airly,49.66999,21.17913,1,5,Fryderyka Chopina,Gorlice,Poland,0,0,,0,0,0,0,0,0,0,,
2562,Powiat mikołowski,Airly,50.15256,18.84001,2,10,Fryderyka Chopina,Łaziska Górne,Poland,0,0,,0,0,0,0,0,0,0,,
2563,Miasteczko Śląskie,Airly,50.49144,18.92267,1,8,Rynek,Miasteczko Śląskie,Poland,0,0,,0,0,0,0,0,0,0,,
2564,Siepraw (gmina),Airly,49.88208,20.02157,1,250,,Zakliczyn,Poland,0,0,,0,0,0,0,0,0,0,,
2565,KrakówOddycha,Airly,50.08413,19.96842,1,17A,Macieja Miechowity,Kraków,Poland,0,0,,0,0,0,0,0,0,0,,
2566,Aviva,Airly,50.20244,19.1372,2,13A,Brzozowa,Mysłowice,Poland,0,0,,0,0,0,0,0,0,0,,
2567,Starachowice,Airly,51.05594,21.0569,2,11,1 Maja,Starachowice,Poland,0,0,,0,0,0,0,0,0,0,,
2569,Aviva,Airly,50.61897,20.7462,2,3,Słoneczna,Chmielnik,Poland,0,0,,0,0,0,0,0,0,0,,
2570,Kłobuck,Airly,50.90362,18.93833,2,1,Szkolna,Kłobuck,Poland,0,0,,0,0,0,0,0,0,0,,
2572,Rzgów,Airly,51.64906,19.58436,2,,,Romanów,Poland,0,0,,0,0,0,0,0,0,0,,
2576,Stryszów (gmina),Airly,49.81452,19.59627,1,,,Dąbrówka,Poland,0,0,,0,0,0,0,0,0,0,,
2577,Stryszów (gmina),Airly,49.83209,19.67452,1,,,Stronie,Poland,0,0,,0,0,0,0,0,0,0,,
2578,Aviva,Airly,51.19049,20.40741,2,5,plac Kościuszki,Końskie,Poland,0,0,,0,0,0,0,0,0,0,,
2579,Aviva,Airly,51.38273,20.27384,2,23,Mikołaja Kopernika,Opoczno,Poland,0,0,,0,0,0,0,0,0,0,,
2580,Powiat chrzanowski,Airly,50.10001,19.30563,1,1,Floriańska,Libiąż,Poland,0,0,,0,0,0,0,0,0,0,,
2581,Wieliczka,Airly,49.93782,20.10238,1,4,Grajów,Grajów,Poland,0,0,,0,0,0,0,0,0,0,,
2582,Aviva,Airly,53.40922,18.43944,2,1,Bolesława Prusa,Świecie,Poland,0,0,,0,0,0,0,0,0,0,,
2583,Urząd Miasta Mikołów,Airly,50.1743,18.90682,2,24,Katowicka,Mikołów,Poland,0,0,,0,0,0,0,0,0,0,,
2584,Gmina Trzebinia,Airly,50.17143,19.43476,1,112,1 Maja,Trzebinia,Poland,0,0,,0,0,0,0,0,0,0,,
2585,Aviva,Airly,53.11413,19.05497,2,22,Rynek,Golub-Dobrzyń,Poland,0,0,,0,0,0,0,0,0,0,,
2588,PolskaOddycha,Airly,50.19189,18.44909,2,2,Rogera,Rudy,Poland,0,0,,0,0,0,0,0,0,0,,
2589,Lubień,Airly,49.71713,19.97845,2,,,Lubień,Poland,0,0,,0,0,0,0,0,0,0,,
2590,Aviva,Airly,53.10238,19.05157,2,,Żeromskiego,Golub-Dobrzyń,Poland,0,0,,0,0,0,0,0,0,0,,
2591,Stryszów (gmina),Airly,49.84052,19.58066,1,,,Łękawica,Poland,0,0,,0,0,0,0,0,0,0,,
2592,Starachowice,Airly,51.04512,21.06801,2,14,Inżyniera Władysława Rogowskiego,Starachowice,Poland,0,0,,0,0,0,0,0,0,0,,
2593,PolskaOddycha,Airly,52.18417,20.86933,3,8,Górna Droga,Warszawa,Poland,0,0,,0,0,0,0,0,0,0,,
2594,Przedsiębiorstwo Energetyki Cieplnej w Płońsku,Airly,52.62432,20.37566,2,8,Grunwaldzka,Płońsk,Poland,0,0,,0,0,0,0,0,0,0,,
2595,Aviva,Airly,50.24712,19.13387,2,39,Bytomska,Mysłowice,Poland,0,0,,0,0,0,0,0,0,0,,
2596,Aviva,Airly,50.09736,19.2662,1,4,Kasprowicza,Chełmek,Poland,0,0,,0,0,0,0,0,0,0,,
2599,Wieliczka,Airly,50.03952,20.13467,2,,,Grabie,Poland,0,0,,0,0,0,0,0,0,0,,
2601,Stryszów (gmina),Airly,49.82618,19.65637,1,,,Zakrzów,Poland,0,0,,0,0,0,0,0,0,0,,
2602,Gmina Brzozów,Airly,49.67401,21.96246,1,,,Zmiennica,Poland,0,0,,0,0,0,0,0,0,0,,
2604,Jaworzno,Airly,50.18696,19.32365,1,35,Kasztanowa,Jaworzno,Poland,0,0,,0,0,0,0,0,0,0,,
2605,Rzgów,Airly,51.67116,19.47052,2,15,Nasienna,Rzgów,Poland,0,0,,0,0,0,0,0,0,0,,
2606,Rzgów,Airly,51.68112,19.53658,2,,,Huta Wiskicka,Poland,0,0,,0,0,0,0,0,0,0,,
2608,Kłobuck,Airly,50.90878,18.93875,2,2,9 Maja,Kłobuck,Poland,0,0,,0,0,0,0,0,0,0,,
2609,Gmina Trzebinia,Airly,50.20031,19.4484,1,26,Matejki,Trzebinia,Poland,0,0,,0,0,0,0,0,0,0,,
2610,Powiat mikołowski,Airly,50.1657,18.89948,2,1,księdza Biskupa Władysława Bandurskiego,Mikołów,Poland,0,0,,0,0,0,0,0,0,0,,
2611,Gmina Trzebinia,Airly,50.16678,19.44703,1,60,1 Maja,Trzebinia,Poland,0,0,,0,0,0,0,0,0,0,,
2613,Powiat chrzanowski,Airly,50.18391,19.47874,1,1,Trzebińska,Myślachowice,Poland,0,0,,0,0,0,0,0,0,0,,
2614,Urząd Miasta Mikołów,Airly,50.19703,18.86214,2,27-39,Jana Kawalca,Mikołów,Poland,0,0,,0,0,0,0,0,0,0,,
2619,Myślenice,Airly,49.88285,19.91753,2,,,Krzyszkowice,Poland,0,0,,0,0,0,0,0,0,0,,
2621,Aviva,Airly,52.41727,21.18281,2,2,Plac Tadeusza Kościuszki,Radzymin,Poland,0,0,,0,0,0,0,0,0,0,,
2622,Bydgoszcz,Airly,53.12705,18.04876,3,2,Mazurska,Bydgoszcz,Poland,0,0,,0,0,0,0,0,0,0,,
2624,Starachowice,Airly,51.02971,21.04752,1,,,Starachowice,Poland,0,0,,0,0,0,0,0,0,0,,
2627,Rzgów,Airly,51.69644,19.47801,2,2,Szeroka,Starowa Góra,Poland,0,0,,0,0,0,0,0,0,0,,
2628,Koźminek,Airly,51.79825,18.33286,2,,M. Kopernika,Koźminek,Poland,0,0,,0,0,0,0,0,0,0,,
2629,Aviva,Airly,52.43055,21.44161,2,,Bartosza Głowackiego,Tłuszcz,Poland,0,0,,0,0,0,0,0,0,0,,
2631,Mielec,Airly,50.29768,21.4698,1,6,Łąkowa SP-13,Mielec,Poland,0,0,,0,0,0,0,0,0,0,,
2632,Aviva,Airly,50.04,19.22056,2,5,Plac Księdza Jana Skarbka,Oświęcim,Poland,0,0,,0,0,0,0,0,0,0,,
2633,Starachowice,Airly,51.03663,21.06319,2,1,Piotra Wysockiego,Starachowice,Poland,0,0,,0,0,0,0,0,0,0,,
2635,Pieniński Park Narodowy,Airly,49.44003,20.41889,1,107B,Jagiellońska,Krościenko nad Dunajcem,Poland,0,0,,0,0,0,0,0,0,0,,
2636,CORONA,Airly,49.65783,18.86558,1,5,Górnośląska,Wisła,Poland,0,0,,0,0,0,0,0,0,0,,
2637,Gdów,Airly,49.93416,20.28036,2,,,Pierzchów,Poland,0,0,,0,0,0,0,0,0,0,,
2638,Aviva,Airly,51.46938,19.22325,2,36B,Kilińskiego,Zelów,Poland,0,0,,0,0,0,0,0,0,0,,
2642,Aviva,Airly,49.90372,19.48274,1,,,Tomice,Poland,0,0,,0,0,0,0,0,0,0,,
2643,Gmina Sławków,Airly,50.28432,19.34192,1,45,Niwa,Sławków,Poland,0,0,,0,0,0,0,0,0,0,,
2645,Elektrociepłownia Mielec Sp. z o.o.,Airly,50.26661,21.46082,1,276,Wojsławska,Mielec,Poland,0,0,,0,0,0,0,0,0,0,,
2648,Gmina Trzebinia,Airly,50.16126,19.47154,0,11,Piłsudskiego,Trzebinia,Poland,0,0,,0,0,0,0,0,0,0,,
2649,Rzgów,Airly,51.68209,19.45036,2,66,Lucerniana,Stara Gadka,Poland,0,0,,0,0,0,0,0,0,0,,
2651,Wieliczka,Airly,49.93511,20.06409,1,,,Raciborsko,Poland,0,0,,0,0,0,0,0,0,0,,
2652,Tomaszów Mazowiecki,Airly,51.54261,20.00347,2,2-6,Mielczarskiego,Tomaszów Mazowiecki,Poland,0,0,,0,0,0,0,0,0,0,,
2654,LEIER SA,Airly,49.98216,20.98663,1,60,Tarnowska,Tarnowiec,Poland,0,0,,0,0,0,0,0,0,0,,
2655,Zabierzów,Airly,50.13561,19.75934,1,34,Słoneczna,Więckowice,Poland,0,0,,0,0,0,0,0,0,0,,
2657,Aviva,Airly,49.42474,20.46436,1,14A,Flisacka,Szczawnica,Poland,0,0,,0,0,0,0,0,0,0,,
2658,Rzgów,Airly,51.69172,19.49222,2,102,Centralna,Starowa Góra,Poland,0,0,,0,0,0,0,0,0,0,,
2659,im-prove,Airly,51.60061,18.93659,3,14-16,Łaska,Zduńska Wola,Poland,0,0,,0,0,0,0,0,0,0,,
2660,Skała,Airly,50.27197,19.91158,2,,,Gołyszyn,Poland,0,0,,0,0,0,0,0,0,0,,
2662,Aviva,Airly,49.94995,19.80141,1,,,Rzozów,Poland,0,0,,0,0,0,0,0,0,0,,
2663,Aviva,Airly,52.89301,21.21891,2,,,Czerwonka Włościańska,Poland,0,0,,0,0,0,0,0,0,0,,
2664,Radomsko,Airly,51.0792,19.39336,2,7,Skorupki,Radomsko,Poland,0,0,,0,0,0,0,0,0,0,,
2665,Aviva,Airly,50.23859,18.28657,2,5A,Dworcowa,Dziergowice,Poland,0,0,,0,0,0,0,0,0,0,,
2666,Aleksandrów Łódzki,Airly,51.82,19.30937,2,3,Aleja Wyzwolenia,Aleksandrów Łódzki,Poland,0,0,,0,0,0,0,0,0,0,,
2667,Aleksandrów Łódzki,Airly,51.8232,19.30678,2,4/6,Piotrkowska,Aleksandrów Łódzki,Poland,0,0,,0,0,0,0,0,0,0,,
2668,Aviva,Airly,53.80328,21.57434,1,1,Jana Pawła II,Mikołajki,Poland,0,0,,0,0,0,0,0,0,0,,
2669,Aviva,Airly,49.98129,19.23625,2,1,Główna,Grojec,Poland,0,0,,0,0,0,0,0,0,0,,
2670,eurobank,Airly,52.23299,21.08234,0,2,Żymirskiego,Warszawa,Poland,0,0,,0,0,0,0,0,0,0,,
